scrape_date,reit,community,address,market,unit_id,beds,baths,sqft,rent,move_in_date,lease_term,has_concession,concession_hardness,concession_raw,concession_type,concession_value,concession_pct_lease_value,concession_pct_lease_term,effective_monthly_rent,listing_url,first_seen,last_seen,state,city,latitude,longitude,floorplan_name,floor_level,rentcafe_property_id
2026-04-13,AMH,"Albuquerque, NM","2281 Solara Loop NE, Rio Rancho, NM, 87144","Albuquerque, NM",AMH-NM12393,3,2.5,2366,2340.0,2026-02-12,12 months,False,,,,,,,,https://www.amh.com/query?criteria=Albuquerque%2C+NM,2026-04-05,2026-04-13,NM,Rio Rancho,35.278335,-106.683254,,,NM12393
2026-04-13,AMH,"Albuquerque, NM","4910 Dolores Hidalgo Drive SE, Rio Rancho, NM, 87124","Albuquerque, NM",AMH-NM12043,3,2.0,1506,2265.0,2026-04-10,12 months,False,,,,,,,,https://www.amh.com/query?criteria=Albuquerque%2C+NM,2026-04-05,2026-04-13,NM,Rio Rancho,35.24181,-106.642829,,,NM12043
2026-04-13,AMH,"Albuquerque, NM","6719 Piedra Quemada Road NW, Albuquerque, NM, 87114","Albuquerque, NM",AMH-NM12163,3,2.0,1700,2250.0,2026-04-03,12 months,False,,,,,,,,https://www.amh.com/query?criteria=Albuquerque%2C+NM,2026-04-05,2026-04-13,NM,Albuquerque,35.190067,-106.729965,,,NM12163
2026-04-13,AMH,"Albuquerque, NM","3337 Cochiti Street NE, Rio Rancho, NM, 87144","Albuquerque, NM",AMH-NM12177,4,2.5,2650,2395.0,2025-08-11,12 months,False,,,,,,,,https://www.amh.com/query?criteria=Albuquerque%2C+NM,2026-04-05,2026-04-13,NM,Rio Rancho,35.313438,-106.708481,,,NM12177
2026-04-13,AMH,"Albuquerque, NM","7305 Bob White Lane NE, Albuquerque, NM, 87109","Albuquerque, NM",AMH-NM12083,3,2.5,1860,2400.0,2026-04-08,12 months,False,,,,,,,,https://www.amh.com/query?criteria=Albuquerque%2C+NM,2026-04-05,2026-04-13,NM,Albuquerque,35.172556,-106.563727,,,NM12083
2026-04-13,AMH,"Albuquerque, NM","5726 Quay Drive NE, Rio Rancho, NM, 87144","Albuquerque, NM",AMH-NM12017,3,2.0,1998,2410.0,2026-06-07,12 months,False,,,,,,,,https://www.amh.com/query?criteria=Albuquerque%2C+NM,2026-04-13,2026-04-13,NM,Rio Rancho,35.355219,-106.616769,,,NM12017
2026-04-13,AMH,"Albuquerque, NM","6201 Capriccio Road NW, Albuquerque, NM, 87114","Albuquerque, NM",AMH-NM12238,3,2.0,1769,2265.0,2026-06-01,12 months,False,,,,,,,,https://www.amh.com/query?criteria=Albuquerque%2C+NM,2026-04-05,2026-04-13,NM,Albuquerque,35.209043,-106.698958,,,NM12238
2026-04-13,AMH,"Albuquerque, NM","6920 Brindisi Place NW, Albuquerque, NM, 87114","Albuquerque, NM",AMH-NM12232,3,2.5,1500,2285.0,2026-05-18,12 months,False,,,,,,,,https://www.amh.com/query?criteria=Albuquerque%2C+NM,2026-04-05,2026-04-13,NM,Albuquerque,35.201493,-106.733086,,,NM12232
2026-04-13,AMH,"Albuquerque, NM","8419 Casa Morena Court NW, Albuquerque, NM, 87120","Albuquerque, NM",AMH-NM12229,3,2.0,1225,2010.0,2026-05-16,12 months,False,,,,,,,,https://www.amh.com/query?criteria=Albuquerque%2C+NM,2026-04-05,2026-04-13,NM,Albuquerque,35.098862,-106.739494,,,NM12229
2026-04-13,AMH,"Albuquerque, NM","4981 Butte Place, Albuquerque, NM, 87120","Albuquerque, NM",AMH-NM12182,3,2.0,1255,2005.0,2026-05-10,12 months,False,,,,,,,,https://www.amh.com/query?criteria=Albuquerque%2C+NM,2026-04-05,2026-04-13,NM,Albuquerque,35.141853,-106.717704,,,NM12182
2026-04-13,AMH,"Albuquerque, NM","709 Loma Pinon Loop, Rio Rancho, NM, 87144","Albuquerque, NM",AMH-NM12120,3,3.0,1893,2235.0,2026-04-20,12 months,False,,,,,,,,https://www.amh.com/query?criteria=Albuquerque%2C+NM,2026-04-05,2026-04-13,NM,Rio Rancho,35.284099,-106.717497,,,NM12120
2026-04-13,AMH,"Albuquerque, NM","10319 Calle Dichoso Court NW, Albuquerque, NM, 87114","Albuquerque, NM",AMH-NM12442,4,2.5,2800,2870.0,2026-04-20,12 months,False,,,,,,,,https://www.amh.com/query?criteria=Albuquerque%2C+NM,2026-04-05,2026-04-13,NM,Albuquerque,35.200295,-106.720017,,,NM12442
2026-04-13,AMH,"Albuquerque, NM","1232 Maple Meadows Drive, Rio Rancho, NM, 87144","Albuquerque, NM",AMH-NM12148,3,2.5,2043,2325.0,2026-04-16,12 months,False,,,,,,,,https://www.amh.com/query?criteria=Albuquerque%2C+NM,2026-04-05,2026-04-13,NM,Rio Rancho,35.317346,-106.71098,,,NM12148
2026-04-13,AMH,"Albuquerque, NM","6609 Country Hills Court NW, Albuquerque, NM, 87114","Albuquerque, NM",AMH-NM12095,4,2.0,1724,2310.0,2026-04-20,12 months,False,,,,,,,,https://www.amh.com/query?criteria=Albuquerque%2C+NM,2026-04-05,2026-04-13,NM,Albuquerque,35.202274,-106.728195,,,NM12095
2026-04-13,AMH,"Albuquerque, NM","1139 Northern Lights Way, Rio Rancho, NM, 87144","Albuquerque, NM",AMH-NM12119,3,2.0,1589,2125.0,2026-04-17,12 months,False,,,,,,,,https://www.amh.com/query?criteria=Albuquerque%2C+NM,2026-04-05,2026-04-13,NM,Rio Rancho,35.303073,-106.71353,,,NM12119
2026-04-13,AMH,"Atlanta, GA","1394 Prospect Creek Court, Lawrenceville, GA, 30043","Atlanta, GA",AMH-GA15608,3,2.0,2528,2290.0,2025-11-20,12 months,False,,,,,,,,https://www.amh.com/query?criteria=Atlanta%2C+GA,2026-04-05,2026-04-13,GA,Lawrenceville,34.017186,-83.956771,,,GA15608
2026-04-13,AMH,"Atlanta, GA","3006 Dunlin Fields Road, Lawrenceville, GA, 30044","Atlanta, GA",AMH-GA14233,3,2.5,1642,2095.0,2026-03-16,12 months,False,,,,,,,,https://www.amh.com/query?criteria=Atlanta%2C+GA,2026-04-05,2026-04-13,GA,Lawrenceville,33.928223,-84.08934,,,GA14233
2026-04-13,AMH,"Atlanta, GA","131 The Esplanade Way SW, Loganville, GA, 30052","Atlanta, GA",AMH-GA14286,4,2.5,1700,2050.0,2026-02-06,12 months,False,,,,,,,,https://www.amh.com/query?criteria=Atlanta%2C+GA,2026-04-05,2026-04-13,GA,Loganville,33.869041,-83.917328,,,GA14286
2026-04-13,AMH,"Atlanta, GA","425 Tell Circle, Atlanta, GA, 30331","Atlanta, GA",AMH-GA15052,3,2.0,3036,2380.0,2026-01-30,12 months,False,,,,,,,,https://www.amh.com/query?criteria=Atlanta%2C+GA,2026-04-05,2026-04-13,GA,Atlanta,33.682693,-84.59742,,,GA15052
2026-04-13,AMH,"Atlanta, GA","1221 Bordeau Way, Villa Rica, GA, 30180","Atlanta, GA",AMH-GA19095,5,4.0,3121,2545.0,2026-03-17,12 months,False,,,,,,,,https://www.amh.com/query?criteria=Atlanta%2C+GA,2026-04-13,2026-04-13,GA,Villa Rica,33.752636,-84.866211,,,GA19095
2026-04-13,AMH,"Atlanta, GA","2988 Cherohala Point, Atlanta, GA, 30331","Atlanta, GA",AMH-GA13865,3,2.5,2151,2275.0,2026-04-02,12 months,False,,,,,,,,https://www.amh.com/query?criteria=Atlanta%2C+GA,2026-04-05,2026-04-13,GA,Atlanta,33.678688,-84.623222,,,GA13865
2026-04-13,AMH,"Atlanta, GA","592 Woodall Road, Stockbridge, GA, 30281","Atlanta, GA",AMH-GA19340,4,2.5,2090,2485.0,0001-01-01,12 months,False,,,,,,,,https://www.amh.com/query?criteria=Atlanta%2C+GA,2026-04-13,2026-04-13,GA,Stockbridge,33.568381,-84.239471,,,GA19340
2026-04-13,AMH,"Atlanta, GA","648 Carnaby Lane, Dacula, GA, 30019","Atlanta, GA",AMH-GA20271,5,3.0,2513,2595.0,2026-03-27,12 months,False,,,,,,,,https://www.amh.com/query?criteria=Atlanta%2C+GA,2026-04-13,2026-04-13,GA,Dacula,34.00711,-83.93286,,,GA20271
2026-04-13,AMH,"Atlanta, GA","3052 Lake Park Trail, Acworth, GA, 30101","Atlanta, GA",AMH-GA15038,4,2.5,2018,2135.0,2026-01-14,12 months,False,,,,,,,,https://www.amh.com/query?criteria=Atlanta%2C+GA,2026-04-13,2026-04-13,GA,Acworth,34.067341,-84.638636,,,GA15038
2026-04-13,AMH,"Atlanta, GA","198 Willow Lane, Dallas, GA, 30132","Atlanta, GA",AMH-GA20140,4,2.5,2078,2450.0,2026-04-06,12 months,False,,,,,,,,https://www.amh.com/query?criteria=Atlanta%2C+GA,2026-04-13,2026-04-13,GA,Dallas,33.955628,-84.799725,,,GA20140
2026-04-13,AMH,"Atlanta, GA","104 Cobblestone Drive, Dallas, GA, 30132","Atlanta, GA",AMH-GA18066,3,2.5,1805,1970.0,2026-03-30,12 months,False,,,,,,,,https://www.amh.com/query?criteria=Atlanta%2C+GA,2026-04-13,2026-04-13,GA,Dallas,33.922266,-84.83381,,,GA18066
2026-04-13,AMH,"Atlanta, GA","1081 High Tide Court, Loganville, GA, 30052","Atlanta, GA",AMH-GA17528,3,2.0,1913,2095.0,2026-03-23,12 months,False,,,,,,,,https://www.amh.com/query?criteria=Atlanta%2C+GA,2026-04-13,2026-04-13,GA,Loganville,33.870387,-83.875713,,,GA17528
2026-04-13,AMH,"Atlanta, GA","3565 Hanna Hill Road, Loganville, GA, 30052","Atlanta, GA",AMH-GA22551,4,2.5,2293,2470.0,2026-04-06,12 months,False,,,,,,,,https://www.amh.com/query?criteria=Atlanta%2C+GA,2026-04-13,2026-04-13,GA,Loganville,33.888108,-83.898803,,,GA22551
2026-04-13,AMH,"Atlanta, GA","3642 Emory Creek View, Loganville, GA, 30052","Atlanta, GA",AMH-GA22556,5,3.0,2513,2715.0,2026-04-01,12 months,False,,,,,,,,https://www.amh.com/query?criteria=Atlanta%2C+GA,2026-04-13,2026-04-13,GA,Loganville,33.888191,-83.89939,,,GA22556
2026-04-13,AMH,"Atlanta, GA","2830 Elkmont Ridge, Atlanta, GA, 30331","Atlanta, GA",AMH-GA14982,4,3.0,3268,2775.0,2026-03-30,12 months,False,,,,,,,,https://www.amh.com/query?criteria=Atlanta%2C+GA,2026-04-05,2026-04-13,GA,Atlanta,33.676697,-84.619743,,,GA14982
2026-04-13,AMH,"Atlanta, GA","1440 Stoney Field Place, Lawrenceville, GA, 30043","Atlanta, GA",AMH-GA00438,4,2.5,2834,2380.0,2026-02-20,12 months,False,,,,,,,,https://www.amh.com/query?criteria=Atlanta%2C+GA,2026-04-13,2026-04-13,GA,Lawrenceville,34.01766,-83.965102,,,GA00438
2026-04-13,AMH,"Atlanta, GA","1080 Highland Walk, Canton, GA, 30114","Atlanta, GA",AMH-GA19727,4,2.5,2098,2505.0,2026-04-09,12 months,False,,,,,,,,https://www.amh.com/query?criteria=Atlanta%2C+GA,2026-04-13,2026-04-13,GA,Canton,34.2615,-84.458,,,GA19727
2026-04-13,AMH,"Atlanta, GA","2673 Blowing Wind Circle, Douglasville, GA, 30135","Atlanta, GA",AMH-GA15598,5,3.0,3238,2640.0,2026-04-06,12 months,False,,,,,,,,https://www.amh.com/query?criteria=Atlanta%2C+GA,2026-04-13,2026-04-13,GA,Douglasville,33.679548,-84.664375,,,GA15598
2026-04-13,AMH,"Atlanta, GA","2208 Sprucewood Drive, Acworth, GA, 30101","Atlanta, GA",AMH-GA15704,3,2.5,2031,2200.0,0001-01-01,12 months,False,,,,,,,,https://www.amh.com/query?criteria=Atlanta%2C+GA,2026-04-05,2026-04-13,GA,Acworth,34.06194,-84.61318,,,GA15704
2026-04-13,AMH,"Atlanta, GA","887 Kendall Park Drive, Winder, GA, 30680","Atlanta, GA",AMH-GA12661,3,2.5,2029,1970.0,2026-02-05,12 months,False,,,,,,,,https://www.amh.com/query?criteria=Atlanta%2C+GA,2026-04-05,2026-04-13,GA,Winder,33.955406,-83.780861,,,GA12661
2026-04-13,AMH,"Atlanta, GA","602 Lake Vista Court, Loganville, GA, 30052","Atlanta, GA",AMH-GA17657,3,2.5,2040,2350.0,2026-04-10,12 months,False,,,,,,,,https://www.amh.com/query?criteria=Atlanta%2C+GA,2026-04-05,2026-04-13,GA,Loganville,33.851242,-83.881739,,,GA17657
2026-04-13,AMH,"Atlanta, GA","230 McBee Place, Dallas, GA, 30132","Atlanta, GA",AMH-GA17452,4,2.5,2085,2145.0,2026-04-03,12 months,False,,,,,,,,https://www.amh.com/query?criteria=Atlanta%2C+GA,2026-04-05,2026-04-13,GA,Dallas,33.92523,-84.846926,,,GA17452
2026-04-13,AMH,"Atlanta, GA","240 Grover Turner Way, McDonough, GA, 30253","Atlanta, GA",AMH-GA13847,3,2.0,1527,2145.0,2026-04-10,12 months,False,,,,,,,,https://www.amh.com/query?criteria=Atlanta%2C+GA,2026-04-05,2026-04-13,GA,McDonough,33.46104,-84.224594,,,GA13847
2026-04-13,AMH,"Atlanta, GA","1500 Woodberry Court, Mcdonough, GA, 30253","Atlanta, GA",AMH-GA14167,3,2.0,1684,2040.0,2026-04-07,12 months,False,,,,,,,,https://www.amh.com/query?criteria=Atlanta%2C+GA,2026-04-05,2026-04-13,GA,Mcdonough,33.485142,-84.192627,,,GA14167
2026-04-13,AMH,"Atlanta, GA","170 Taggart Run, Lawrenceville, GA, 30044","Atlanta, GA",AMH-GA11013,3,2.5,1904,2180.0,2026-04-10,12 months,False,,,,,,,,https://www.amh.com/query?criteria=Atlanta%2C+GA,2026-04-05,2026-04-13,GA,Lawrenceville,33.922456,-84.055099,,,GA11013
2026-04-13,AMH,"Atlanta, GA","310 Hickory Pointe Loop, Dallas, GA, 30157","Atlanta, GA",AMH-GA21952,4,2.5,2481,2555.0,2026-03-20,12 months,False,,,,,,,,https://www.amh.com/query?criteria=Atlanta%2C+GA,2026-04-05,2026-04-13,GA,Dallas,33.841061,-84.837493,,,GA21952
2026-04-13,AMH,"Atlanta, GA","545 Summit View Lane, Canton, GA, 30114","Atlanta, GA",AMH-GA19644,4,2.5,2098,2560.0,0001-01-01,12 months,False,,,,,,,,https://www.amh.com/query?criteria=Atlanta%2C+GA,2026-04-05,2026-04-13,GA,Canton,34.264214,-84.459781,,,GA19644
2026-04-13,AMH,"Atlanta, GA","6105 Braidwood Court, Acworth, GA, 30101","Atlanta, GA",AMH-GA12294,5,3.5,3434,3225.0,2026-03-23,12 months,False,,,,,,,,https://www.amh.com/query?criteria=Atlanta%2C+GA,2026-04-05,2026-04-13,GA,Acworth,33.971802,-84.730263,,,GA12294
2026-04-13,AMH,"Atlanta, GA","4369 Windmoor Drive NW, Kennesaw, GA, 30144","Atlanta, GA",AMH-GA13415,3,2.5,2386,2295.0,2026-02-13,12 months,False,,,,,,,,https://www.amh.com/query?criteria=Atlanta%2C+GA,2026-04-05,2026-04-13,GA,Kennesaw,34.058659,-84.596313,,,GA13415
2026-04-13,AMH,"Atlanta, GA","1124 Stepping Stone Lane, Conyers, GA, 30012","Atlanta, GA",AMH-GA13365,4,3.0,3347,2660.0,2026-04-07,12 months,False,,,,,,,,https://www.amh.com/query?criteria=Atlanta%2C+GA,2026-04-05,2026-04-13,GA,Conyers,33.691472,-84.029863,,,GA13365
2026-04-13,AMH,"Atlanta, GA","4104 Dale Drive SE, Conyers, GA, 30013","Atlanta, GA",AMH-GA16736,4,2.5,1829,2070.0,2026-03-24,12 months,False,,,,,,,,https://www.amh.com/query?criteria=Atlanta%2C+GA,2026-04-05,2026-04-13,GA,Conyers,33.620239,-83.969291,,,GA16736
2026-04-13,AMH,"Atlanta, GA","25 Thrasher Way, Covington, GA, 30014","Atlanta, GA",AMH-GA15309,3,2.5,2124,1995.0,2026-04-07,12 months,False,,,,,,,,https://www.amh.com/query?criteria=Atlanta%2C+GA,2026-04-05,2026-04-13,GA,Covington,33.562913,-83.826625,,,GA15309
2026-04-13,AMH,"Atlanta, GA","3198 Cedar Glade Lane, Buford, GA, 30519","Atlanta, GA",AMH-GA14128,3,2.5,1465,1970.0,2026-04-06,12 months,False,,,,,,,,https://www.amh.com/query?criteria=Atlanta%2C+GA,2026-04-05,2026-04-13,GA,Buford,34.07145,-83.968935,,,GA14128
2026-04-13,AMH,"Atlanta, GA","2114 Serenity Drive NW, Acworth, GA, 30101","Atlanta, GA",AMH-GA17910,3,2.5,1380,2115.0,0001-01-01,12 months,False,,,,,,,,https://www.amh.com/query?criteria=Atlanta%2C+GA,2026-04-05,2026-04-13,GA,Acworth,34.05313,-84.614344,,,GA17910
2026-04-13,AMH,"Atlanta, GA","3802 Uppark Drive, Atlanta, GA, 30349","Atlanta, GA",AMH-GA15361,4,2.5,2655,2550.0,2026-04-07,12 months,False,,,,,,,,https://www.amh.com/query?criteria=Atlanta%2C+GA,2026-04-05,2026-04-13,GA,Atlanta,33.653081,-84.571288,,,GA15361
2026-04-13,AMH,"Atlanta, GA","5410 Lakebrooke Run, Stone Mountain, GA, 30087","Atlanta, GA",AMH-GA14899,3,2.5,1695,2180.0,2026-03-24,12 months,False,,,,,,,,https://www.amh.com/query?criteria=Atlanta%2C+GA,2026-04-05,2026-04-13,GA,Stone Mountain,33.826908,-84.118828,,,GA14899
2026-04-13,AMH,"Atlanta, GA","329 Westminster Drive, Canton, GA, 30114","Atlanta, GA",AMH-GA11068,3,2.5,1982,2230.0,2026-03-18,12 months,False,,,,,,,,https://www.amh.com/query?criteria=Atlanta%2C+GA,2026-04-05,2026-04-13,GA,Canton,34.178547,-84.526749,,,GA11068
2026-04-13,AMH,"Atlanta, GA","180 Pecan Drive, Dallas, GA, 30132","Atlanta, GA",AMH-GA20170,4,2.5,2297,2495.0,2026-04-07,12 months,False,,,,,,,,https://www.amh.com/query?criteria=Atlanta%2C+GA,2026-04-05,2026-04-13,GA,Dallas,33.956069,-84.797778,,,GA20170
2026-04-13,AMH,"Atlanta, GA","5175 Hudson Valley Drive, Cumming, GA, 30028","Atlanta, GA",AMH-GA18380,5,3.0,2850,2940.0,2026-02-17,12 months,False,,,,,,,,https://www.amh.com/query?criteria=Atlanta%2C+GA,2026-04-05,2026-04-13,GA,Cumming,34.242,-84.2572,,,GA18380
2026-04-13,AMH,"Atlanta, GA","3612 Emory Creek View, Loganville, GA, 30052","Atlanta, GA",AMH-GA22559,4,2.5,2293,2450.0,2026-03-20,12 months,False,,,,,,,,https://www.amh.com/query?criteria=Atlanta%2C+GA,2026-04-05,2026-04-13,GA,Loganville,33.888609,-83.899683,,,GA22559
2026-04-13,AMH,"Atlanta, GA","3555 Hanna Hill Road, Loganville, GA, 30052","Atlanta, GA",AMH-GA22550,4,2.5,2481,2550.0,2026-02-20,12 months,False,,,,,,,,https://www.amh.com/query?criteria=Atlanta%2C+GA,2026-04-05,2026-04-13,GA,Loganville,33.888248,-83.898902,,,GA22550
2026-04-13,AMH,"Atlanta, GA","708 Braidwood Ridge NW, Acworth, GA, 30101","Atlanta, GA",AMH-GA18202,4,2.5,2968,2740.0,2026-04-10,12 months,False,,,,,,,,https://www.amh.com/query?criteria=Atlanta%2C+GA,2026-04-05,2026-04-13,GA,Acworth,33.97498,-84.73684,,,GA18202
2026-04-13,AMH,"Atlanta, GA","3016 SE Cedar Glen Run, Gainesville, GA, 30507","Atlanta, GA",AMH-GA23681,4,2.5,1646,2150.0,2026-04-06,12 months,False,,,,,,,,https://www.amh.com/query?criteria=Atlanta%2C+GA,2026-04-05,2026-04-13,GA,Gainesville,34.281332,-83.764844,,,GA23681
2026-04-13,AMH,"Atlanta, GA","625 Gleaner Way, Locust Grove, GA, 30248","Atlanta, GA",AMH-GA20408,4,2.5,2421,2265.0,2026-03-09,12 months,False,,,,,,,,https://www.amh.com/query?criteria=Atlanta%2C+GA,2026-04-05,2026-04-13,GA,Locust Grove,33.349717,-84.063908,,,GA20408
2026-04-13,AMH,"Atlanta, GA","154 Spring Creek Court, Canton, GA, 30115","Atlanta, GA",AMH-GA16449,4,3.0,1696,2290.0,2026-03-23,12 months,False,,,,,,,,https://www.amh.com/query?criteria=Atlanta%2C+GA,2026-04-05,2026-04-13,GA,Canton,34.162289,-84.485519,,,GA16449
2026-04-13,AMH,"Atlanta, GA","1847 Rocky Water Court, Buford, GA, 30519","Atlanta, GA",AMH-GA14651,4,2.5,2468,2470.0,2026-03-30,12 months,False,,,,,,,,https://www.amh.com/query?criteria=Atlanta%2C+GA,2026-04-05,2026-04-13,GA,Buford,34.044964,-83.963837,,,GA14651
2026-04-13,AMH,"Atlanta, GA","661 Stonecrest Drive, Loganville, GA, 30052","Atlanta, GA",AMH-GA16549,3,2.0,2015,2150.0,2026-03-31,12 months,False,,,,,,,,https://www.amh.com/query?criteria=Atlanta%2C+GA,2026-04-05,2026-04-13,GA,Loganville,33.840403,-83.927801,,,GA16549
2026-04-13,AMH,"Atlanta, GA","2750 Freemont Street, Snellville, GA, 30078","Atlanta, GA",AMH-GA15767,4,2.5,2057,2260.0,2026-03-16,12 months,False,,,,,,,,https://www.amh.com/query?criteria=Atlanta%2C+GA,2026-04-05,2026-04-13,GA,Snellville,33.84626,-84.01468,,,GA15767
2026-04-13,AMH,"Atlanta, GA","112 Oscar Way, Dallas, GA, 30132","Atlanta, GA",AMH-GA17510,4,3.5,2350,2200.0,2026-03-20,12 months,False,,,,,,,,https://www.amh.com/query?criteria=Atlanta%2C+GA,2026-04-05,2026-04-13,GA,Dallas,33.934984,-84.84243,,,GA17510
2026-04-13,AMH,"Atlanta, GA","2130 Twisted Creek Lane, Auburn, GA, 30011","Atlanta, GA",AMH-GA19573,5,4.0,2714,2915.0,2026-04-02,12 months,False,,,,,,,,https://www.amh.com/query?criteria=Atlanta%2C+GA,2026-04-05,2026-04-13,GA,Auburn,34.08471,-83.8574,,,GA19573
2026-04-13,AMH,"Atlanta, GA","731 Hot Springs Trail, McDonough, GA, 30252","Atlanta, GA",AMH-GA21891,4,2.5,2485,2550.0,2026-03-25,12 months,False,,,,,,,,https://www.amh.com/query?criteria=Atlanta%2C+GA,2026-04-05,2026-04-13,GA,McDonough,33.458309,-84.107265,,,GA21891
2026-04-13,AMH,"Atlanta, GA","1469 Aquamarine Drive, Loganville, GA, 30052","Atlanta, GA",AMH-GA22894,5,3.0,2502,2775.0,2026-02-17,12 months,False,,,,,,,,https://www.amh.com/query?criteria=Atlanta%2C+GA,2026-04-05,2026-04-13,GA,Loganville,33.892928,-83.8881,,,GA22894
2026-04-13,AMH,"Atlanta, GA","688 Woodall Road, Stockbridge, GA, 30281","Atlanta, GA",AMH-GA19326,4,2.5,2090,2485.0,2026-01-09,12 months,False,,,,,,,,https://www.amh.com/query?criteria=Atlanta%2C+GA,2026-04-05,2026-04-13,GA,Stockbridge,33.5688,-84.2391,,,GA19326
2026-04-13,AMH,"Atlanta, GA","104 Arbor Creek Way, Dallas, GA, 30157","Atlanta, GA",AMH-GA14925,4,2.5,2202,2205.0,2026-03-24,12 months,False,,,,,,,,https://www.amh.com/query?criteria=Atlanta%2C+GA,2026-04-05,2026-04-13,GA,Dallas,33.899403,-84.849915,,,GA14925
2026-04-13,AMH,"Atlanta, GA","4283 Cabretta Drive, Smyrna, GA, 30080","Atlanta, GA",AMH-GA12288,3,2.5,1766,2450.0,2026-03-26,12 months,False,,,,,,,,https://www.amh.com/query?criteria=Atlanta%2C+GA,2026-04-05,2026-04-13,GA,Smyrna,33.849388,-84.503532,,,GA12288
2026-04-13,AMH,"Atlanta, GA","3436 Archgate Court, Milton, GA, 30004","Atlanta, GA",AMH-GAA0205,3,2.5,2513,2795.0,2026-03-25,12 months,False,,,,,,,,https://www.amh.com/query?criteria=Atlanta%2C+GA,2026-04-05,2026-04-13,GA,Milton,34.125927,-84.260544,,,GAA0205
2026-04-13,AMH,"Atlanta, GA","1388 Glenover Way, Marietta, GA, 30062","Atlanta, GA",AMH-GA13453,3,2.5,1765,2410.0,2026-03-25,12 months,False,,,,,,,,https://www.amh.com/query?criteria=Atlanta%2C+GA,2026-04-05,2026-04-13,GA,Marietta,33.98959,-84.511185,,,GA13453
2026-04-13,AMH,"Atlanta, GA","550 Brook Hollow Drive, Mcdonough, GA, 30252","Atlanta, GA",AMH-GA16792,4,2.5,2305,2430.0,2026-03-26,12 months,False,,,,,,,,https://www.amh.com/query?criteria=Atlanta%2C+GA,2026-04-05,2026-04-13,GA,Mcdonough,33.540815,-84.119285,,,GA16792
2026-04-13,AMH,"Atlanta, GA","412 Farmwood Way, Canton, GA, 30115","Atlanta, GA",AMH-GA18345,5,3.0,3209,2935.0,2026-03-16,12 months,False,,,,,,,,https://www.amh.com/query?criteria=Atlanta%2C+GA,2026-04-05,2026-04-13,GA,Canton,34.2261,-84.33861,,,GA18345
2026-04-13,AMH,"Atlanta, GA","101 Springbrook Lane, Stockbridge, GA, 30281","Atlanta, GA",AMH-GA17572,3,2.0,1691,2015.0,2026-03-24,12 months,False,,,,,,,,https://www.amh.com/query?criteria=Atlanta%2C+GA,2026-04-05,2026-04-13,GA,Stockbridge,33.599252,-84.176507,,,GA17572
2026-04-13,AMH,"Atlanta, GA","251 Lake Vista Drive, Loganville, GA, 30052","Atlanta, GA",AMH-GA17721,4,2.5,2400,2450.0,2026-03-13,12 months,False,,,,,,,,https://www.amh.com/query?criteria=Atlanta%2C+GA,2026-04-05,2026-04-13,GA,Loganville,33.851275,-83.878447,,,GA17721
2026-04-13,AMH,"Atlanta, GA","347 Hickory Pointe Loop, Dallas, GA, 30157","Atlanta, GA",AMH-GA22013,4,2.5,2481,2555.0,2026-03-06,12 months,False,,,,,,,,https://www.amh.com/query?criteria=Atlanta%2C+GA,2026-04-05,2026-04-13,GA,Dallas,33.840362,-84.837006,,,GA22013
2026-04-13,AMH,"Atlanta, GA","3089 Ansley Place Road, Loganville, GA, 30052","Atlanta, GA",AMH-GA22538,5,3.0,2513,2695.0,2026-03-19,12 months,False,,,,,,,,https://www.amh.com/query?criteria=Atlanta%2C+GA,2026-04-05,2026-04-13,GA,Loganville,33.888314,-83.898397,,,GA22538
2026-04-13,AMH,"Atlanta, GA","1515 Morning Glory Way, Locust Grove, GA, 30248","Atlanta, GA",AMH-GA12805,3,2.0,1501,1965.0,2026-04-06,12 months,False,,,,,,,,https://www.amh.com/query?criteria=Atlanta%2C+GA,2026-04-05,2026-04-13,GA,Locust Grove,33.357452,-84.088371,,,GA12805
2026-04-13,AMH,"Atlanta, GA","1697 Bennett Drive, Mcdonough, GA, 30253","Atlanta, GA",AMH-GA14119,5,3.0,2846,2525.0,2026-04-13,12 months,False,,,,,,,,https://www.amh.com/query?criteria=Atlanta%2C+GA,2026-04-05,2026-04-13,GA,Mcdonough,33.404217,-84.204506,,,GA14119
2026-04-13,AMH,"Atlanta, GA","199 High Trail Pass, Dallas, GA, 30132","Atlanta, GA",AMH-GA18143,4,3.0,2908,2505.0,2026-03-25,12 months,False,,,,,,,,https://www.amh.com/query?criteria=Atlanta%2C+GA,2026-04-05,2026-04-13,GA,Dallas,33.952958,-84.806199,,,GA18143
2026-04-13,AMH,"Atlanta, GA","7055 Creeksong Drive, Douglasville, GA, 30134","Atlanta, GA",AMH-GA18669,5,3.0,2215,2575.0,2026-03-23,12 months,False,,,,,,,,https://www.amh.com/query?criteria=Atlanta%2C+GA,2026-04-05,2026-04-13,GA,Douglasville,33.7601,-84.7573,,,GA18669
2026-04-13,AMH,"Atlanta, GA","673 Summit View Lane, Canton, GA, 30114","Atlanta, GA",AMH-GA19676,4,2.5,1977,2430.0,2026-04-09,12 months,False,,,,,,,,https://www.amh.com/query?criteria=Atlanta%2C+GA,2026-04-05,2026-04-13,GA,Canton,34.26357,-84.456671,,,GA19676
2026-04-13,AMH,"Atlanta, GA","1459 Aquamarine Drive, Loganville, GA, 30052","Atlanta, GA",AMH-GA22895,4,2.5,2293,2550.0,2026-02-20,12 months,False,,,,,,,,https://www.amh.com/query?criteria=Atlanta%2C+GA,2026-04-05,2026-04-13,GA,Loganville,33.892936,-83.8883,,,GA22895
2026-04-13,AMH,"Atlanta, GA","3545 Hanna Hill Road, Loganville, GA, 30052","Atlanta, GA",AMH-GA22549,5,3.0,2513,2695.0,2026-02-24,12 months,False,,,,,,,,https://www.amh.com/query?criteria=Atlanta%2C+GA,2026-04-05,2026-04-13,GA,Loganville,33.888383,-83.898998,,,GA22549
2026-04-13,AMH,"Atlanta, GA","3505 Hanna Hill Road, Loganville, GA, 30052","Atlanta, GA",AMH-GA22545,5,3.0,2513,2695.0,2026-02-02,12 months,False,,,,,,,,https://www.amh.com/query?criteria=Atlanta%2C+GA,2026-04-05,2026-04-13,GA,Loganville,33.88894,-83.899388,,,GA22545
2026-04-13,AMH,"Atlanta, GA","3069 Ansley Place Road, Loganville, GA, 30052","Atlanta, GA",AMH-GA22537,4,2.5,2481,2550.0,2025-12-12,12 months,False,,,,,,,,https://www.amh.com/query?criteria=Atlanta%2C+GA,2026-04-05,2026-04-13,GA,Loganville,33.888438,-83.898346,,,GA22537
2026-04-13,AMH,"Atlanta, GA","3029 Ansley Place Road, Loganville, GA, 30052","Atlanta, GA",AMH-GA22534,5,3.0,2513,2695.0,2025-11-26,12 months,False,,,,,,,,https://www.amh.com/query?criteria=Atlanta%2C+GA,2026-04-05,2026-04-13,GA,Loganville,33.888959,-83.898543,,,GA22534
2026-04-13,AMH,"Atlanta, GA","3009 Ansley Place Road, Loganville, GA, 30052","Atlanta, GA",AMH-GA22532,4,2.5,2293,2450.0,2025-10-29,12 months,False,,,,,,,,https://www.amh.com/query?criteria=Atlanta%2C+GA,2026-04-05,2026-04-13,GA,Loganville,33.889245,-83.898746,,,GA22532
2026-04-13,AMH,"Atlanta, GA","3019 Ansley Place Road, Loganville, GA, 30052","Atlanta, GA",AMH-GA22533,4,2.5,2481,2550.0,2025-11-10,12 months,False,,,,,,,,https://www.amh.com/query?criteria=Atlanta%2C+GA,2026-04-05,2026-04-13,GA,Loganville,33.889103,-83.898646,,,GA22533
2026-04-13,AMH,"Atlanta, GA","890 Jubilation Street, Loganville, GA, 30052","Atlanta, GA",AMH-GA22396,4,2.5,2293,2550.0,2025-09-30,12 months,False,,,,,,,,https://www.amh.com/query?criteria=Atlanta%2C+GA,2026-04-05,2026-04-13,GA,Loganville,33.889665,-83.898617,,,GA22396
2026-04-13,AMH,"Atlanta, GA","395 Hickory Pointe Loop, Dallas, GA, 30157","Atlanta, GA",AMH-GA22015,4,2.5,2481,2555.0,2026-02-24,12 months,False,,,,,,,,https://www.amh.com/query?criteria=Atlanta%2C+GA,2026-04-05,2026-04-13,GA,Dallas,33.839687,-84.836868,,,GA22015
2026-04-13,AMH,"Atlanta, GA","56 Hickory Pointe Road, Dallas, GA, 30157","Atlanta, GA",AMH-GA21997,4,2.5,2481,2555.0,2025-10-17,12 months,False,,,,,,,,https://www.amh.com/query?criteria=Atlanta%2C+GA,2026-04-05,2026-04-13,GA,Dallas,33.838362,-84.833828,,,GA21997
2026-04-13,AMH,"Atlanta, GA","232 Hickory Pointe Loop, Dallas, GA, 30157","Atlanta, GA",AMH-GA21957,5,3.0,2513,2720.0,2026-04-01,12 months,False,,,,,,,,https://www.amh.com/query?criteria=Atlanta%2C+GA,2026-04-05,2026-04-13,GA,Dallas,33.840509,-84.836075,,,GA21957
2026-04-13,AMH,"Atlanta, GA","305 Golucke Way, McDonough, GA, 30252","Atlanta, GA",AMH-GA22136,4,2.5,2449,2700.0,2026-03-16,12 months,False,,,,,,,,https://www.amh.com/query?criteria=Atlanta%2C+GA,2026-04-05,2026-04-13,GA,McDonough,33.44053,-84.0397,,,GA22136
2026-04-13,AMH,"Atlanta, GA","3500 Watson Gate Road, Loganville, GA, 30052","Atlanta, GA",AMH-GA18044,4,2.5,2968,2440.0,2026-03-18,12 months,False,,,,,,,,https://www.amh.com/query?criteria=Atlanta%2C+GA,2026-04-05,2026-04-13,GA,Loganville,33.86299,-83.9268,,,GA18044
2026-04-13,AMH,"Atlanta, GA","2486 Napa Valley Drive, Villa Rica, GA, 30180","Atlanta, GA",AMH-GA19115,4,3.0,2090,2070.0,2026-03-25,12 months,False,,,,,,,,https://www.amh.com/query?criteria=Atlanta%2C+GA,2026-04-05,2026-04-13,GA,Villa Rica,33.751429,-84.867866,,,GA19115
2026-04-13,AMH,"Atlanta, GA","373 Winston Circle, Canton, GA, 30114","Atlanta, GA",AMH-GA20318,3,2.5,1839,2195.0,0001-01-01,12 months,False,,,,,,,,https://www.amh.com/query?criteria=Atlanta%2C+GA,2026-04-05,2026-04-13,GA,Canton,34.2148,-84.528309,,,GA20318
2026-04-13,AMH,"Atlanta, GA","776 Somersby Drive, Dallas, GA, 30157","Atlanta, GA",AMH-GA21406,4,3.0,2395,2720.0,0001-01-01,12 months,False,,,,,,,,https://www.amh.com/query?criteria=Atlanta%2C+GA,2026-04-05,2026-04-13,GA,Dallas,33.881247,-84.850175,,,GA21406
2026-04-13,AMH,"Atlanta, GA","35 Hampton Place, Covington, GA, 30016","Atlanta, GA",AMH-GA15307,4,3.0,3285,2630.0,2026-04-08,12 months,False,,,,,,,,https://www.amh.com/query?criteria=Atlanta%2C+GA,2026-04-05,2026-04-13,GA,Covington,33.524349,-83.949999,,,GA15307
2026-04-13,AMH,"Atlanta, GA","2613 Newtons Crest Circle, Snellville, GA, 30078","Atlanta, GA",AMH-GA20445,4,2.5,2174,2395.0,2026-02-20,12 months,False,,,,,,,,https://www.amh.com/query?criteria=Atlanta%2C+GA,2026-04-05,2026-04-13,GA,Snellville,33.840096,-84.026553,,,GA20445
2026-04-13,AMH,"Atlanta, GA","5292 Blue Mountain Drive, Auburn, GA, 30011","Atlanta, GA",AMH-GA19542,4,3.0,2513,2815.0,2026-04-10,12 months,False,,,,,,,,https://www.amh.com/query?criteria=Atlanta%2C+GA,2026-04-05,2026-04-13,GA,Auburn,34.219038,-84.209151,,,GA19542
2026-04-13,AMH,"Atlanta, GA","825 Headland Way, Canton, GA, 30114","Atlanta, GA",AMH-GA19779,4,2.5,2098,2475.0,2026-03-25,12 months,False,,,,,,,,https://www.amh.com/query?criteria=Atlanta%2C+GA,2026-04-05,2026-04-13,GA,Canton,34.262048,-84.459234,,,GA19779
2026-04-13,AMH,"Atlanta, GA","637 Summit View Lane, Canton, GA, 30114","Atlanta, GA",AMH-GA19667,3,2.5,1685,2400.0,2026-04-10,12 months,False,,,,,,,,https://www.amh.com/query?criteria=Atlanta%2C+GA,2026-04-05,2026-04-13,GA,Canton,34.264723,-84.457331,,,GA19667
2026-04-13,AMH,"Atlanta, GA","189 Willow Lane, Dallas, GA, 30132","Atlanta, GA",AMH-GA20122,4,2.5,2078,2450.0,2026-04-03,12 months,False,,,,,,,,https://www.amh.com/query?criteria=Atlanta%2C+GA,2026-04-05,2026-04-13,GA,Dallas,33.955344,-84.799781,,,GA20122
2026-04-13,AMH,"Atlanta, GA","4905 Franks Creek Way, Cumming, GA, 30028","Atlanta, GA",AMH-GA18414,3,2.5,2111,2650.0,2026-03-26,12 months,False,,,,,,,,https://www.amh.com/query?criteria=Atlanta%2C+GA,2026-04-05,2026-04-13,GA,Cumming,34.2397,-84.2552,,,GA18414
2026-04-13,AMH,"Atlanta, GA","200 Deer Walk Drive, Winder, GA, 30680","Atlanta, GA",AMH-GA15026,3,2.0,1550,1970.0,0001-01-01,12 months,False,,,,,,,,https://www.amh.com/query?criteria=Atlanta%2C+GA,2026-04-05,2026-04-13,GA,Winder,33.973713,-83.753708,,,GA15026
2026-04-13,AMH,"Atlanta, GA","135 Oak Grove Place, Acworth, GA, 30102","Atlanta, GA",AMH-GA17912,3,2.5,1260,1935.0,2026-04-10,12 months,False,,,,,,,,https://www.amh.com/query?criteria=Atlanta%2C+GA,2026-04-05,2026-04-13,GA,Acworth,34.094617,-84.610139,,,GA17912
2026-04-13,AMH,"Atlanta, GA","881 Simon Park Circle, Lawrenceville, GA, 30045","Atlanta, GA",AMH-GA13013,4,2.5,2342,2270.0,0001-01-01,12 months,False,,,,,,,,https://www.amh.com/query?criteria=Atlanta%2C+GA,2026-04-05,2026-04-13,GA,Lawrenceville,33.94928,-83.944695,,,GA13013
2026-04-13,AMH,"Atlanta, GA","3740 Georgia Drive, Douglasville, GA, 30135","Atlanta, GA",AMH-GA14681,4,3.5,2441,2450.0,2026-03-24,12 months,False,,,,,,,,https://www.amh.com/query?criteria=Atlanta%2C+GA,2026-04-05,2026-04-13,GA,Douglasville,33.704395,-84.696472,,,GA14681
2026-04-13,AMH,"Atlanta, GA","5455 Yellow Pine Drive, Mcdonough, GA, 30252","Atlanta, GA",AMH-GA15009,4,2.0,1869,1990.0,2026-03-06,12 months,False,,,,,,,,https://www.amh.com/query?criteria=Atlanta%2C+GA,2026-04-05,2026-04-13,GA,Mcdonough,33.422108,-84.128761,,,GA15009
2026-04-13,AMH,"Atlanta, GA","1159 Ashlyn Court, Lawrenceville, GA, 30043","Atlanta, GA",AMH-GA19490,5,3.0,2850,2855.0,2026-04-09,12 months,False,,,,,,,,https://www.amh.com/query?criteria=Atlanta%2C+GA,2026-04-05,2026-04-13,GA,Lawrenceville,34.046,-83.959,,,GA19490
2026-04-13,AMH,"Atlanta, GA","3337 O'Kelly Drive, Loganville, GA, 30052","Atlanta, GA",AMH-GA16902,5,3.0,2435,2550.0,2026-03-26,12 months,False,,,,,,,,https://www.amh.com/query?criteria=Atlanta%2C+GA,2026-04-05,2026-04-13,GA,Loganville,33.858293,-83.930179,,,GA16902
2026-04-13,AMH,"Atlanta, GA","90 Spruce Circle, Dallas, GA, 30132","Atlanta, GA",AMH-GA20115,4,2.5,2078,2450.0,2026-04-06,12 months,False,,,,,,,,https://www.amh.com/query?criteria=Atlanta%2C+GA,2026-04-05,2026-04-13,GA,Dallas,33.954114,-84.799458,,,GA20115
2026-04-13,AMH,"Atlanta, GA","351 Shady Glen, Dallas, GA, 30132","Atlanta, GA",AMH-GA23096,4,2.5,2380,2400.0,2026-03-26,12 months,False,,,,,,,,https://www.amh.com/query?criteria=Atlanta%2C+GA,2026-04-05,2026-04-13,GA,Dallas,33.995428,-84.779343,,,GA23096
2026-04-13,AMH,"Atlanta, GA","750 Compton Lane, McDonough, GA, 30253","Atlanta, GA",AMH-GA15390,4,2.5,2196,2205.0,2026-03-24,12 months,False,,,,,,,,https://www.amh.com/query?criteria=Atlanta%2C+GA,2026-04-05,2026-04-13,GA,McDonough,33.444153,-84.17791,,,GA15390
2026-04-13,AMH,"Atlanta, GA","321 Bowfin Trail, McDonough, GA, 30253","Atlanta, GA",AMH-GA22864,4,2.5,2649,2915.0,0001-01-01,12 months,False,,,,,,,,https://www.amh.com/query?criteria=Atlanta%2C+GA,2026-04-05,2026-04-13,GA,McDonough,33.492948,-84.185416,,,GA22864
2026-04-13,AMH,"Atlanta, GA","2046 Township Drive, Woodstock, GA, 30189","Atlanta, GA",AMH-GA16448,4,2.5,2250,2550.0,2026-04-13,12 months,False,,,,,,,,https://www.amh.com/query?criteria=Atlanta%2C+GA,2026-04-05,2026-04-13,GA,Woodstock,34.10302,-84.556175,,,GA16448
2026-04-13,AMH,"Atlanta, GA","3511 Umatilla Ln SW, Atlanta, GA, 30331","Atlanta, GA",AMH-GA12794,4,3.0,2760,2695.0,2026-03-31,12 months,False,,,,,,,,https://www.amh.com/query?criteria=Atlanta%2C+GA,2026-04-05,2026-04-13,GA,Atlanta,33.662033,-84.545715,,,GA12794
2026-04-13,AMH,"Atlanta, GA","740 Chatham Park Drive, Lawrenceville, GA, 30046","Atlanta, GA",AMH-GA14936,3,2.0,1740,2195.0,2026-04-01,12 months,False,,,,,,,,https://www.amh.com/query?criteria=Atlanta%2C+GA,2026-04-05,2026-04-13,GA,Lawrenceville,33.924641,-83.989021,,,GA14936
2026-04-13,AMH,"Atlanta, GA","387 Moreland Circle, Hiram, GA, 30141","Atlanta, GA",AMH-GA13438,3,3.0,2234,2000.0,0001-01-01,12 months,False,,,,,,,,https://www.amh.com/query?criteria=Atlanta%2C+GA,2026-04-05,2026-04-13,GA,Hiram,33.910061,-84.73954,,,GA13438
2026-04-13,AMH,"Atlanta, GA","2376 Rimmele Drive, Lawrenceville, GA, 30044","Atlanta, GA",AMH-GA11040,4,2.5,1593,2110.0,2026-04-10,12 months,False,,,,,,,,https://www.amh.com/query?criteria=Atlanta%2C+GA,2026-04-05,2026-04-13,GA,Lawrenceville,33.94756,-84.07924,,,GA11040
2026-04-13,AMH,"Atlanta, GA","228 Kings Cove, Locust Grove, GA, 30248","Atlanta, GA",AMH-GA17026,4,2.5,1640,1955.0,2026-03-20,12 months,False,,,,,,,,https://www.amh.com/query?criteria=Atlanta%2C+GA,2026-04-05,2026-04-13,GA,Locust Grove,33.339541,-84.078617,,,GA17026
2026-04-13,AMH,"Atlanta, GA","4809 Rapids Circle NW, Acworth, GA, 30102","Atlanta, GA",AMH-GA00129,4,3.0,3886,3105.0,0001-01-01,12 months,False,,,,,,,,https://www.amh.com/query?criteria=Atlanta%2C+GA,2026-04-05,2026-04-13,GA,Acworth,34.07085,-84.601547,,,GA00129
2026-04-13,AMH,"Atlanta, GA","240 Shenandoah Trace, Fayetteville, GA, 30214","Atlanta, GA",AMH-GA15534,4,3.5,2983,2950.0,2026-04-06,12 months,False,,,,,,,,https://www.amh.com/query?criteria=Atlanta%2C+GA,2026-04-05,2026-04-13,GA,Fayetteville,33.543066,-84.444295,,,GA15534
2026-04-13,AMH,"Atlanta, GA","4148 Duncan Ives Drive, Buford, GA, 30519","Atlanta, GA",AMH-GA12978,4,3.0,3780,2700.0,2026-03-30,12 months,False,,,,,,,,https://www.amh.com/query?criteria=Atlanta%2C+GA,2026-04-05,2026-04-13,GA,Buford,34.105042,-83.89209,,,GA12978
2026-04-13,AMH,"Atlanta, GA","103 Holly Mill Village Drive, Canton, GA, 30114","Atlanta, GA",AMH-GA16236,4,2.5,2228,2305.0,2026-04-08,12 months,False,,,,,,,,https://www.amh.com/query?criteria=Atlanta%2C+GA,2026-04-05,2026-04-13,GA,Canton,34.181885,-84.522775,,,GA16236
2026-04-13,AMH,"Atlanta, GA","2075 Reserve Parkway, Mcdonough, GA, 30253","Atlanta, GA",AMH-GA13274,4,2.0,2077,2015.0,2026-01-22,12 months,False,,,,,,,,https://www.amh.com/query?criteria=Atlanta%2C+GA,2026-04-05,2026-04-13,GA,Mcdonough,33.39305,-84.182842,,,GA13274
2026-04-13,AMH,"Atlanta, GA","91 Spruce Circle, Dallas, GA, 30132","Atlanta, GA",AMH-GA20096,4,2.5,2078,2480.0,2026-03-30,12 months,False,,,,,,,,https://www.amh.com/query?criteria=Atlanta%2C+GA,2026-04-05,2026-04-13,GA,Dallas,33.953897,-84.799508,,,GA20096
2026-04-13,AMH,"Atlanta, GA","3174 Baymount Way, Lawrenceville, GA, 30043","Atlanta, GA",AMH-GA00237,3,2.0,1860,2325.0,2026-03-30,12 months,False,,,,,,,,https://www.amh.com/query?criteria=Atlanta%2C+GA,2026-04-05,2026-04-13,GA,Lawrenceville,34.051837,-84.006011,,,GA00237
2026-04-13,AMH,"Atlanta, GA","805 Chatham Park Drive, Lawrenceville, GA, 30045","Atlanta, GA",AMH-GA14902,3,2.0,1459,2020.0,2026-02-17,12 months,False,,,,,,,,https://www.amh.com/query?criteria=Atlanta%2C+GA,2026-04-05,2026-04-13,GA,Lawrenceville,33.924026,-83.990227,,,GA14902
2026-04-13,AMH,"Atlanta, GA","1130 Saint Phillips Court, Locust Grove, GA, 30248","Atlanta, GA",AMH-GA16681,4,2.5,2010,2105.0,2026-04-02,12 months,False,,,,,,,,https://www.amh.com/query?criteria=Atlanta%2C+GA,2026-04-05,2026-04-13,GA,Locust Grove,33.331888,-84.107959,,,GA16681
2026-04-13,AMH,"Atlanta, GA","4284 Wood Cove Drive, Snellville, GA, 30039","Atlanta, GA",AMH-GA15538,3,2.0,2180,2210.0,2026-04-09,12 months,False,,,,,,,,https://www.amh.com/query?criteria=Atlanta%2C+GA,2026-04-05,2026-04-13,GA,Snellville,33.779434,-84.035347,,,GA15538
2026-04-13,AMH,"Atlanta, GA","507 Round Rock Trail, Lawrenceville, GA, 30045","Atlanta, GA",AMH-GA13729,4,2.5,1949,2065.0,2026-02-17,12 months,False,,,,,,,,https://www.amh.com/query?criteria=Atlanta%2C+GA,2026-04-05,2026-04-13,GA,Lawrenceville,33.967414,-83.930083,,,GA13729
2026-04-13,AMH,"Atlanta, GA","910 Harbins View Drive, Dacula, GA, 30019","Atlanta, GA",AMH-GA18833,4,2.0,1933,2380.0,2026-04-03,12 months,False,,,,,,,,https://www.amh.com/query?criteria=Atlanta%2C+GA,2026-04-05,2026-04-13,GA,Dacula,34.026017,-83.902374,,,GA18833
2026-04-13,AMH,"Atlanta, GA","263 Royal Crescent Terrace, Canton, GA, 30115","Atlanta, GA",AMH-GA15476,4,2.5,2731,2620.0,0001-01-01,12 months,False,,,,,,,,https://www.amh.com/query?criteria=Atlanta%2C+GA,2026-04-05,2026-04-13,GA,Canton,34.191659,-84.443693,,,GA15476
2026-04-13,AMH,"Atlanta, GA","2586 Marleigh Farm Road, Kennesaw, GA, 30152","Atlanta, GA",AMH-GA13648,3,3.0,1884,2220.0,0001-01-01,12 months,False,,,,,,,,https://www.amh.com/query?criteria=Atlanta%2C+GA,2026-04-05,2026-04-13,GA,Kennesaw,34.01733,-84.654602,,,GA13648
2026-04-13,AMH,"Atlanta, GA","121 Haeven Trail, Dallas, GA, 30132","Atlanta, GA",AMH-GA17501,4,2.5,2326,2095.0,0001-01-01,12 months,False,,,,,,,,https://www.amh.com/query?criteria=Atlanta%2C+GA,2026-04-05,2026-04-13,GA,Dallas,33.933033,-84.839086,,,GA17501
2026-04-13,AMH,"Atlanta, GA","3335 N Winds Trail, Douglasville, GA, 30135","Atlanta, GA",AMH-GA17591,3,2.5,2060,2095.0,2026-03-30,12 months,False,,,,,,,,https://www.amh.com/query?criteria=Atlanta%2C+GA,2026-04-05,2026-04-13,GA,Douglasville,33.685317,-84.692335,,,GA17591
2026-04-13,AMH,"Atlanta, GA","301 Boulder Run, Hiram, GA, 30141","Atlanta, GA",AMH-GA22056,3,2.5,1946,2135.0,2026-03-30,12 months,False,,,,,,,,https://www.amh.com/query?criteria=Atlanta%2C+GA,2026-04-05,2026-04-13,GA,Hiram,33.877071,-84.779962,,,GA22056
2026-04-13,AMH,"Atlanta, GA","208 Cole Court, Canton, GA, 30114","Atlanta, GA",AMH-GA16422,3,2.5,1720,2115.0,2026-04-03,12 months,False,,,,,,,,https://www.amh.com/query?criteria=Atlanta%2C+GA,2026-04-05,2026-04-13,GA,Canton,34.212036,-84.509522,,,GA16422
2026-04-13,AMH,"Atlanta, GA","118 Hidden Creek Drive, Canton, GA, 30114","Atlanta, GA",AMH-GAA0004,3,2.5,1570,2030.0,0001-01-01,12 months,False,,,,,,,,https://www.amh.com/query?criteria=Atlanta%2C+GA,2026-04-05,2026-04-13,GA,Canton,34.183056,-84.513465,,,GAA0004
2026-04-13,AMH,"Atlanta, GA","4939 Lake Park Lane, Acworth, GA, 30101","Atlanta, GA",AMH-GA13400,4,2.5,1800,2225.0,0001-01-01,12 months,False,,,,,,,,https://www.amh.com/query?criteria=Atlanta%2C+GA,2026-04-05,2026-04-13,GA,Acworth,34.071928,-84.639536,,,GA13400
2026-04-13,AMH,"Atlanta, GA","17 Brookvalley Court, Dallas, GA, 30157","Atlanta, GA",AMH-GA13978,4,2.5,2188,2075.0,0001-01-01,12 months,False,,,,,,,,https://www.amh.com/query?criteria=Atlanta%2C+GA,2026-04-05,2026-04-13,GA,Dallas,33.911808,-84.772446,,,GA13978
2026-04-13,AMH,"Atlanta, GA","222 N Fortune Way, Dallas, GA, 30157","Atlanta, GA",AMH-GA20430,3,2.5,1840,2010.0,0001-01-01,12 months,False,,,,,,,,https://www.amh.com/query?criteria=Atlanta%2C+GA,2026-04-05,2026-04-13,GA,Dallas,33.911457,-84.890794,,,GA20430
2026-04-13,AMH,"Atlanta, GA","216 Latitia Lane, McDonough, GA, 30252","Atlanta, GA",AMH-GA22134,4,2.5,2449,2700.0,2026-03-13,12 months,False,,,,,,,,https://www.amh.com/query?criteria=Atlanta%2C+GA,2026-04-05,2026-04-13,GA,McDonough,33.44025,-84.04047,,,GA22134
2026-04-13,AMH,"Atlanta, GA","4238 NW Brighton Way NW, Kennesaw, GA, 30144","Atlanta, GA",AMH-GA11059,4,2.5,2278,2480.0,2026-03-31,12 months,False,,,,,,,,https://www.amh.com/query?criteria=Atlanta%2C+GA,2026-04-05,2026-04-13,GA,Kennesaw,34.057407,-84.635101,,,GA11059
2026-04-13,AMH,"Atlanta, GA","4813 Madison Point Circle, Austell, GA, 30106","Atlanta, GA",AMH-GA00134,4,3.5,3036,2655.0,2026-03-17,12 months,False,,,,,,,,https://www.amh.com/query?criteria=Atlanta%2C+GA,2026-04-05,2026-04-13,GA,Austell,33.837891,-84.630028,,,GA00134
2026-04-13,AMH,"Atlanta, GA","1555 Brentwood Drive, Marietta, GA, 30062","Atlanta, GA",AMH-GA11009,6,3.5,3244,3225.0,2026-03-18,12 months,False,,,,,,,,https://www.amh.com/query?criteria=Atlanta%2C+GA,2026-04-05,2026-04-13,GA,Marietta,33.98565,-84.50616,,,GA11009
2026-04-13,AMH,"Atlanta, GA","247 River Pass Court, Dacula, GA, 30019","Atlanta, GA",AMH-GA18683,4,3.0,2696,2385.0,2026-03-19,12 months,False,,,,,,,,https://www.amh.com/query?criteria=Atlanta%2C+GA,2026-04-05,2026-04-13,GA,Dacula,34.00858,-83.89464,,,GA18683
2026-04-13,AMH,"Atlanta, GA","1386 Key Manor Lane, Lawrenceville, GA, 30045","Atlanta, GA",AMH-GA23035,3,2.5,1896,2195.0,2026-02-04,12 months,False,,,,,,,,https://www.amh.com/query?criteria=Atlanta%2C+GA,2026-04-05,2026-04-13,GA,Lawrenceville,33.974213,-83.93985,,,GA23035
2026-04-13,AMH,"Atlanta, GA","1448 Aquamarine Drive, Loganville, GA, 30052","Atlanta, GA",AMH-GA22972,5,3.0,2502,2775.0,2026-02-13,12 months,False,,,,,,,,https://www.amh.com/query?criteria=Atlanta%2C+GA,2026-04-05,2026-04-13,GA,Loganville,33.893219,-83.8884,,,GA22972
2026-04-13,AMH,"Atlanta, GA","3257 Tuggle Ives Drive, Buford, GA, 30519","Atlanta, GA",AMH-GAA0401,4,2.0,1923,2430.0,2026-03-31,12 months,False,,,,,,,,https://www.amh.com/query?criteria=Atlanta%2C+GA,2026-04-05,2026-04-13,GA,Buford,34.10483,-83.88961,,,GAA0401
2026-04-13,AMH,"Atlanta, GA","1362 Weatherbrook Circle, Lawrenceville, GA, 30043","Atlanta, GA",AMH-GA17291,4,2.5,2620,2460.0,2026-03-12,12 months,False,,,,,,,,https://www.amh.com/query?criteria=Atlanta%2C+GA,2026-04-05,2026-04-13,GA,Lawrenceville,33.998641,-83.955082,,,GA17291
2026-04-13,AMH,"Atlanta, GA","593 Woodall Road, Stockbridge, GA, 30281","Atlanta, GA",AMH-GA19298,4,2.5,2090,2500.0,0001-01-01,12 months,False,,,,,,,,https://www.amh.com/query?criteria=Atlanta%2C+GA,2026-04-05,2026-04-13,GA,Stockbridge,33.567991,-84.239717,,,GA19298
2026-04-13,AMH,"Atlanta, GA","1380 Ashlyn Court, Lawrenceville, GA, 30043","Atlanta, GA",AMH-GA19508,5,3.0,2850,3035.0,2026-03-17,12 months,False,,,,,,,,https://www.amh.com/query?criteria=Atlanta%2C+GA,2026-04-05,2026-04-13,GA,Lawrenceville,34.0463,-83.9579,,,GA19508
2026-04-13,AMH,"Atlanta, GA","406 Redwood Trail, Canton, GA, 30114","Atlanta, GA",AMH-GA18487,3,2.0,1377,2030.0,0001-01-01,12 months,False,,,,,,,,https://www.amh.com/query?criteria=Atlanta%2C+GA,2026-04-05,2026-04-13,GA,Canton,34.196697,-84.535222,,,GA18487
2026-04-13,AMH,"Atlanta, GA","5223 Blue Mountain Drive, Auburn, GA, 30011","Atlanta, GA",AMH-GA19622,4,3.0,2513,2595.0,2026-03-10,12 months,False,,,,,,,,https://www.amh.com/query?criteria=Atlanta%2C+GA,2026-04-05,2026-04-13,GA,Auburn,34.08488,-83.8521,,,GA19622
2026-04-13,AMH,"Atlanta, GA","2341 Suwanee Pointe Drive, Lawrenceville, GA, 30043","Atlanta, GA",AMH-GA14099,4,2.5,1803,2180.0,2026-03-12,12 months,False,,,,,,,,https://www.amh.com/query?criteria=Atlanta%2C+GA,2026-04-05,2026-04-13,GA,Lawrenceville,34.03501,-84.000265,,,GA14099
2026-04-13,AMH,"Atlanta, GA","314 Golucke Way, McDonough, GA, 30252","Atlanta, GA",AMH-GA22138,4,2.5,2449,2700.0,2026-03-24,12 months,False,,,,,,,,https://www.amh.com/query?criteria=Atlanta%2C+GA,2026-04-05,2026-04-13,GA,McDonough,33.44026,-84.03894,,,GA22138
2026-04-13,AMH,"Atlanta, GA","1222 Joe Brogdon Ln, Buford, GA, 30518","Atlanta, GA",AMH-GA00336,5,3.0,3076,3035.0,2026-03-24,12 months,False,,,,,,,,https://www.amh.com/query?criteria=Atlanta%2C+GA,2026-04-05,2026-04-13,GA,Buford,34.084778,-84.019356,,,GA00336
2026-04-13,AMH,"Atlanta, GA","185 Rosemoore Drive, Covington, GA, 30014","Atlanta, GA",AMH-GA18129,4,2.5,2923,2420.0,2025-12-05,12 months,False,,,,,,,,https://www.amh.com/query?criteria=Atlanta%2C+GA,2026-04-05,2026-04-13,GA,Covington,33.561117,-83.831903,,,GA18129
2026-04-13,AMH,"Atlanta, GA","6855 River Island Circle, Buford, GA, 30518","Atlanta, GA",AMH-GAA0064,4,3.0,3074,2775.0,2026-02-05,12 months,False,,,,,,,,https://www.amh.com/query?criteria=Atlanta%2C+GA,2026-04-05,2026-04-13,GA,Buford,34.14517,-84.07149,,,GAA0064
2026-04-13,AMH,"Atlanta, GA","141 McBee Street, Dallas, GA, 30132","Atlanta, GA",AMH-GA17457,4,2.5,2085,2020.0,0001-01-01,12 months,False,,,,,,,,https://www.amh.com/query?criteria=Atlanta%2C+GA,2026-04-05,2026-04-13,GA,Dallas,33.925962,-84.84872,,,GA17457
2026-04-13,AMH,"Atlanta, GA","134 McBee Street, Dallas, GA, 30132","Atlanta, GA",AMH-GA17441,4,2.5,2085,2230.0,2026-03-20,12 months,False,,,,,,,,https://www.amh.com/query?criteria=Atlanta%2C+GA,2026-04-05,2026-04-13,GA,Dallas,33.925233,-84.849029,,,GA17441
2026-04-13,AMH,"Atlanta, GA","176 Al Jennah Boulevard, Locust Grove, GA, 30248","Atlanta, GA",AMH-GA19152,4,2.5,2093,2180.0,2026-02-19,12 months,False,,,,,,,,https://www.amh.com/query?criteria=Atlanta%2C+GA,2026-04-05,2026-04-13,GA,Locust Grove,33.328277,-84.094745,,,GA19152
2026-04-13,AMH,"Atlanta, GA","116 Punderson Drive, McDonough, GA, 30252","Atlanta, GA",AMH-GA22128,4,2.5,2449,2700.0,2026-03-02,12 months,False,,,,,,,,https://www.amh.com/query?criteria=Atlanta%2C+GA,2026-04-05,2026-04-13,GA,McDonough,33.43895,-84.03998,,,GA22128
2026-04-13,AMH,"Atlanta, GA","1755 Heatherton Road, Dacula, GA, 30019","Atlanta, GA",AMH-GA21267,3,2.0,1799,2340.0,2026-03-16,12 months,False,,,,,,,,https://www.amh.com/query?criteria=Atlanta%2C+GA,2026-04-05,2026-04-13,GA,Dacula,34.027608,-83.925874,,,GA21267
2026-04-13,AMH,"Atlanta, GA","2207 Lazy Days Road, Dacula, GA, 30019","Atlanta, GA",AMH-GAA0051,4,2.5,2748,2620.0,2026-03-19,12 months,False,,,,,,,,https://www.amh.com/query?criteria=Atlanta%2C+GA,2026-04-05,2026-04-13,GA,Dacula,34.054214,-83.931602,,,GAA0051
2026-04-13,AMH,"Atlanta, GA","1152 Thomas Daniel Way, Lawrenceville, GA, 30045","Atlanta, GA",AMH-GA00262,5,3.0,2782,2685.0,2026-03-16,12 months,False,,,,,,,,https://www.amh.com/query?criteria=Atlanta%2C+GA,2026-04-05,2026-04-13,GA,Lawrenceville,33.927352,-83.939785,,,GA00262
2026-04-13,AMH,"Atlanta, GA","186 Dean Way, Winder, GA, 30680","Atlanta, GA",AMH-GA12416,3,2.0,1887,2045.0,2026-03-16,12 months,False,,,,,,,,https://www.amh.com/query?criteria=Atlanta%2C+GA,2026-04-05,2026-04-13,GA,Winder,34.013062,-83.798754,,,GA12416
2026-04-13,AMH,"Atlanta, GA","2235 Saluda Lane NW, Acworth, GA, 30101","Atlanta, GA",AMH-GA18212,4,2.5,4128,3210.0,2026-04-06,12 months,False,,,,,,,,https://www.amh.com/query?criteria=Atlanta%2C+GA,2026-04-05,2026-04-13,GA,Acworth,34.00725,-84.7091,,,GA18212
2026-04-13,AMH,"Atlanta, GA","3270 Hampton Trace Court, Buford, GA, 30519","Atlanta, GA",AMH-GA12107,3,2.0,1725,2120.0,2026-03-16,12 months,False,,,,,,,,https://www.amh.com/query?criteria=Atlanta%2C+GA,2026-04-05,2026-04-13,GA,Buford,34.078033,-83.927826,,,GA12107
2026-04-13,AMH,"Atlanta, GA","2006 Farm Hill Court, Stockbridge, GA, 30281","Atlanta, GA",AMH-GA13184,4,2.0,1913,2060.0,2026-02-09,12 months,False,,,,,,,,https://www.amh.com/query?criteria=Atlanta%2C+GA,2026-04-05,2026-04-13,GA,Stockbridge,33.515793,-84.255913,,,GA13184
2026-04-13,AMH,"Atlanta, GA","92 Brookvalley Crossing, Dallas, GA, 30157","Atlanta, GA",AMH-GA21315,4,2.5,2338,2150.0,0001-01-01,12 months,False,,,,,,,,https://www.amh.com/query?criteria=Atlanta%2C+GA,2026-04-05,2026-04-13,GA,Dallas,33.910759,-84.77191,,,GA21315
2026-04-13,AMH,"Atlanta, GA","3024 Estuary Ridge, Acworth, GA, 30101","Atlanta, GA",AMH-GA12915,4,3.0,2186,2235.0,0001-01-01,12 months,False,,,,,,,,https://www.amh.com/query?criteria=Atlanta%2C+GA,2026-04-05,2026-04-13,GA,Acworth,34.069949,-84.636068,,,GA12915
2026-04-13,AMH,"Atlanta, GA","1014 Elsberry Drive, Woodstock, GA, 30189","Atlanta, GA",AMH-GA13665,3,2.5,1932,2245.0,0001-01-01,12 months,False,,,,,,,,https://www.amh.com/query?criteria=Atlanta%2C+GA,2026-04-05,2026-04-13,GA,Woodstock,34.147476,-84.582291,,,GA13665
2026-04-13,AMH,"Atlanta, GA","925 Carnelian Lane, Loganville, GA, 30052","Atlanta, GA",AMH-GA22904,3,2.5,2037,2415.0,2026-04-06,12 months,False,,,,,,,,https://www.amh.com/query?criteria=Atlanta%2C+GA,2026-04-05,2026-04-13,GA,Loganville,33.892994,-83.8901,,,GA22904
2026-04-13,AMH,"Atlanta, GA","4145 Ridgefair Drive, Cumming, GA, 30040","Atlanta, GA",AMH-GA12884,3,2.5,1752,2210.0,2026-02-19,12 months,False,,,,,,,,https://www.amh.com/query?criteria=Atlanta%2C+GA,2026-04-05,2026-04-13,GA,Cumming,34.186008,-84.156242,,,GA12884
2026-04-13,AMH,"Atlanta, GA","3328 O'Kelly Drive, Loganville, GA, 30052","Atlanta, GA",AMH-GA16905,5,4.0,2675,2620.0,2026-01-07,12 months,False,,,,,,,,https://www.amh.com/query?criteria=Atlanta%2C+GA,2026-04-05,2026-04-13,GA,Loganville,33.85893,-83.93019,,,GA16905
2026-04-13,AMH,"Atlanta, GA","714 Ridgewood Way, Canton, GA, 30114","Atlanta, GA",AMH-GA14400,3,2.5,2532,2245.0,2026-02-20,12 months,False,,,,,,,,https://www.amh.com/query?criteria=Atlanta%2C+GA,2026-04-05,2026-04-13,GA,Canton,34.257572,-84.499977,,,GA14400
2026-04-13,AMH,"Atlanta, GA","1785 Summit Edge Circle, Loganville, GA, 30052","Atlanta, GA",AMH-GA17831,3,2.5,1975,2160.0,0001-01-01,12 months,False,,,,,,,,https://www.amh.com/query?criteria=Atlanta%2C+GA,2026-04-05,2026-04-13,GA,Loganville,33.841383,-83.977999,,,GA17831
2026-04-13,AMH,"Atlanta, GA","7860 Keepsake Lane, Flowery Branch, GA, 30542","Atlanta, GA",AMH-GA14418,3,2.5,2196,2250.0,2026-03-05,12 months,False,,,,,,,,https://www.amh.com/query?criteria=Atlanta%2C+GA,2026-04-05,2026-04-13,GA,Flowery Branch,34.135945,-83.901977,,,GA14418
2026-04-13,AMH,"Atlanta, GA","70 Camden Way, Fairburn, GA, 30213","Atlanta, GA",AMH-GA15386,3,2.0,1624,2050.0,2026-04-01,12 months,False,,,,,,,,https://www.amh.com/query?criteria=Atlanta%2C+GA,2026-04-05,2026-04-13,GA,Fairburn,33.536731,-84.566256,,,GA15386
2026-04-13,AMH,"Atlanta, GA","2912 Canopy Circle, Snellville, GA, 30039","Atlanta, GA",AMH-GAA0245,4,2.5,2246,2210.0,2026-02-19,12 months,False,,,,,,,,https://www.amh.com/query?criteria=Atlanta%2C+GA,2026-04-05,2026-04-13,GA,Snellville,33.810959,-84.001778,,,GAA0245
2026-04-13,AMH,"Atlanta, GA","4845 Chasestone Court, Powder Springs, GA, 30127","Atlanta, GA",AMH-GA12846,3,2.0,1344,1820.0,0001-01-01,12 months,False,,,,,,,,https://www.amh.com/query?criteria=Atlanta%2C+GA,2026-04-05,2026-04-13,GA,Powder Springs,33.921356,-84.699615,,,GA12846
2026-04-13,AMH,"Atlanta, GA","631 Sunflower Drive, Canton, GA, 30114","Atlanta, GA",AMH-GA22849,3,2.5,1824,2160.0,2026-02-11,12 months,False,,,,,,,,https://www.amh.com/query?criteria=Atlanta%2C+GA,2026-04-05,2026-04-13,GA,Canton,34.283697,-84.454089,,,GA22849
2026-04-13,AMH,"Atlanta, GA","2632 Back Creek Chase, Dacula, GA, 30019","Atlanta, GA",AMH-GA15857,4,2.5,2723,2460.0,2026-02-06,12 months,False,,,,,,,,https://www.amh.com/query?criteria=Atlanta%2C+GA,2026-04-05,2026-04-13,GA,Dacula,34.036582,-83.92333,,,GA15857
2026-04-13,AMH,"Atlanta, GA","2265 Sunbrook Trail, Acworth, GA, 30101","Atlanta, GA",AMH-GA14883,3,2.0,1685,2075.0,2026-02-03,12 months,False,,,,,,,,https://www.amh.com/query?criteria=Atlanta%2C+GA,2026-04-05,2026-04-13,GA,Acworth,34.01112,-84.696945,,,GA14883
2026-04-13,AMH,"Atlanta, GA","117 Bainbridge Court, Dallas, GA, 30132","Atlanta, GA",AMH-GA17598,3,2.5,2162,1910.0,0001-01-01,12 months,False,,,,,,,,https://www.amh.com/query?criteria=Atlanta%2C+GA,2026-04-05,2026-04-13,GA,Dallas,33.915543,-84.823693,,,GA17598
2026-04-13,AMH,"Atlanta, GA","100 Punderson Drive, McDonough, GA, 30252","Atlanta, GA",AMH-GA22124,4,2.5,2449,2700.0,2026-02-20,12 months,False,,,,,,,,https://www.amh.com/query?criteria=Atlanta%2C+GA,2026-04-05,2026-04-13,GA,McDonough,33.43895,-84.0412,,,GA22124
2026-04-13,AMH,"Atlanta, GA","4669 Liberty Square Drive, Acworth, GA, 30101","Atlanta, GA",AMH-GA12191,3,2.5,1890,2185.0,0001-01-01,12 months,False,,,,,,,,https://www.amh.com/query?criteria=Atlanta%2C+GA,2026-04-05,2026-04-13,GA,Acworth,34.076366,-84.681076,,,GA12191
2026-04-13,AMH,"Atlanta, GA","348 Yellow Iris Road, Grayson, GA, 30017","Atlanta, GA",AMH-GA15954,4,2.0,3724,2590.0,2026-01-31,12 months,False,,,,,,,,https://www.amh.com/query?criteria=Atlanta%2C+GA,2026-04-05,2026-04-13,GA,Grayson,33.910255,-83.931915,,,GA15954
2026-04-13,AMH,"Atlanta, GA","1548 Aquamarine Drive, Loganville, GA, 30052","Atlanta, GA",AMH-GA23017,5,3.0,2502,2775.0,2025-12-18,12 months,False,,,,,,,,https://www.amh.com/query?criteria=Atlanta%2C+GA,2026-04-05,2026-04-13,GA,Loganville,33.893367,-83.8864,,,GA23017
2026-04-13,AMH,"Atlanta, GA","1488 Aquamarine Drive, Loganville, GA, 30052","Atlanta, GA",AMH-GA22968,5,3.0,2502,2775.0,2026-01-09,12 months,False,,,,,,,,https://www.amh.com/query?criteria=Atlanta%2C+GA,2026-04-05,2026-04-13,GA,Loganville,33.893181,-83.8877,,,GA22968
2026-04-13,AMH,"Atlanta, GA","1498 Aquamarine Drive, Loganville, GA, 30052","Atlanta, GA",AMH-GA22967,4,2.5,2293,2550.0,2025-11-24,12 months,False,,,,,,,,https://www.amh.com/query?criteria=Atlanta%2C+GA,2026-04-05,2026-04-13,GA,Loganville,33.893178,-83.8875,,,GA22967
2026-04-13,AMH,"Atlanta, GA","1529 Aquamarine Drive, Loganville, GA, 30052","Atlanta, GA",AMH-GA22965,4,2.5,2293,2550.0,2025-11-24,12 months,False,,,,,,,,https://www.amh.com/query?criteria=Atlanta%2C+GA,2026-04-05,2026-04-13,GA,Loganville,33.892994,-83.8866,,,GA22965
2026-04-13,AMH,"Atlanta, GA","5177 Rosewood Place, Fairburn, GA, 30213","Atlanta, GA",AMH-GA15381,4,2.5,2458,2365.0,2026-03-20,12 months,False,,,,,,,,https://www.amh.com/query?criteria=Atlanta%2C+GA,2026-04-05,2026-04-13,GA,Fairburn,33.611024,-84.594248,,,GA15381
2026-04-13,AMH,"Atlanta, GA","1499 Aquamarine Drive, Loganville, GA, 30052","Atlanta, GA",AMH-GA22891,4,2.5,2293,2550.0,2025-11-07,12 months,False,,,,,,,,https://www.amh.com/query?criteria=Atlanta%2C+GA,2026-04-05,2026-04-13,GA,Loganville,33.8929,-83.8875,,,GA22891
2026-04-13,AMH,"Atlanta, GA","637 Rebecca Ives Dr NW, Lilburn, GA, 30047","Atlanta, GA",AMH-GA00216,4,4.0,3380,3070.0,2026-05-28,12 months,False,,,,,,,,https://www.amh.com/query?criteria=Atlanta%2C+GA,2026-04-05,2026-04-13,GA,Lilburn,33.917891,-84.10996,,,GA00216
2026-04-13,AMH,"Atlanta, GA","3626 Clubside Walk NW, Kennesaw, GA, 30144","Atlanta, GA",AMH-GA00132,3,2.0,1474,2145.0,2026-06-09,12 months,False,,,,,,,,https://www.amh.com/query?criteria=Atlanta%2C+GA,2026-04-13,2026-04-13,GA,Kennesaw,34.040966,-84.656136,,,GA00132
2026-04-13,AMH,"Atlanta, GA","5235 Fieldgate Ridge Drive, Cumming, GA, 30028","Atlanta, GA",AMH-GA16247,4,2.5,2994,2795.0,2026-06-09,12 months,False,,,,,,,,https://www.amh.com/query?criteria=Atlanta%2C+GA,2026-04-13,2026-04-13,GA,Cumming,34.300636,-84.086793,,,GA16247
2026-04-13,AMH,"Atlanta, GA","1158 Low Water Way, Lawrenceville, GA, 30045","Atlanta, GA",AMH-GA00003,4,2.5,2238,2405.0,2026-06-10,12 months,False,,,,,,,,https://www.amh.com/query?criteria=Atlanta%2C+GA,2026-04-13,2026-04-13,GA,Lawrenceville,33.924866,-83.904724,,,GA00003
2026-04-13,AMH,"Atlanta, GA","2631 Abbotts Glen Drive, Acworth, GA, 30101","Atlanta, GA",AMH-GA12247,5,3.0,2601,2605.0,2026-06-10,12 months,False,,,,,,,,https://www.amh.com/query?criteria=Atlanta%2C+GA,2026-04-13,2026-04-13,GA,Acworth,34.074524,-84.630554,,,GA12247
2026-04-13,AMH,"Atlanta, GA","86 Branch Valley Way, Dallas, GA, 30132","Atlanta, GA",AMH-GA13019,4,2.5,2485,2465.0,2026-06-10,12 months,False,,,,,,,,https://www.amh.com/query?criteria=Atlanta%2C+GA,2026-04-13,2026-04-13,GA,Dallas,34.022377,-84.767029,,,GA13019
2026-04-13,AMH,"Atlanta, GA","954 Laurel Green Lane, Sugar Hill, GA, 30518","Atlanta, GA",AMH-GAA0063,3,3.0,2340,2505.0,2026-06-10,12 months,False,,,,,,,,https://www.amh.com/query?criteria=Atlanta%2C+GA,2026-04-13,2026-04-13,GA,Sugar Hill,34.131162,-84.053483,,,GAA0063
2026-04-13,AMH,"Atlanta, GA","501 Gables Court, Mcdonough, GA, 30253","Atlanta, GA",AMH-GA14386,3,2.0,1524,1995.0,2026-06-11,12 months,False,,,,,,,,https://www.amh.com/query?criteria=Atlanta%2C+GA,2026-04-13,2026-04-13,GA,Mcdonough,33.485081,-84.185402,,,GA14386
2026-04-13,AMH,"Atlanta, GA","4701 Gold Mine Drive, Sugar Hill, GA, 30518","Atlanta, GA",AMH-GA18045,3,2.0,1722,2165.0,2026-06-10,12 months,False,,,,,,,,https://www.amh.com/query?criteria=Atlanta%2C+GA,2026-04-13,2026-04-13,GA,Sugar Hill,34.093837,-84.047103,,,GA18045
2026-04-13,AMH,"Atlanta, GA","374 Westhill Drive, Newnan, GA, 30265","Atlanta, GA",AMH-GA15395,5,2.5,3151,2695.0,2026-06-10,12 months,False,,,,,,,,https://www.amh.com/query?criteria=Atlanta%2C+GA,2026-04-13,2026-04-13,GA,Newnan,33.373073,-84.750535,,,GA15395
2026-04-13,AMH,"Atlanta, GA","6502 Blessing Rd SE, Mableton, GA, 30126","Atlanta, GA",AMH-GAA0367,4,3.5,3007,2975.0,2026-06-09,12 months,False,,,,,,,,https://www.amh.com/query?criteria=Atlanta%2C+GA,2026-04-13,2026-04-13,GA,Mableton,33.795261,-84.54158,,,GAA0367
2026-04-13,AMH,"Atlanta, GA","2254 Dresden Green NW, Kennesaw, GA, 30144","Atlanta, GA",AMH-GA16012,4,3.0,2040,2375.0,2026-06-09,12 months,False,,,,,,,,https://www.amh.com/query?criteria=Atlanta%2C+GA,2026-04-13,2026-04-13,GA,Kennesaw,34.052143,-84.613731,,,GA16012
2026-04-13,AMH,"Atlanta, GA","7 Pebble Way, Newnan, GA, 30265","Atlanta, GA",AMH-GA12783,4,2.5,2128,2420.0,2026-05-21,12 months,False,,,,,,,,https://www.amh.com/query?criteria=Atlanta%2C+GA,2026-04-13,2026-04-13,GA,Newnan,33.414952,-84.679953,,,GA12783
2026-04-13,AMH,"Atlanta, GA","511 Crestmont Lane, Canton, GA, 30114","Atlanta, GA",AMH-GA20747,5,3.0,2522,2670.0,2026-05-08,12 months,False,,,,,,,,https://www.amh.com/query?criteria=Atlanta%2C+GA,2026-04-13,2026-04-13,GA,Canton,34.168836,-84.519485,,,GA20747
2026-04-13,AMH,"Atlanta, GA","665 Summit View Lane, Canton, GA, 30114","Atlanta, GA",AMH-GA19674,3,2.5,1685,2400.0,2026-05-13,12 months,False,,,,,,,,https://www.amh.com/query?criteria=Atlanta%2C+GA,2026-04-13,2026-04-13,GA,Canton,34.26385,-84.456703,,,GA19674
2026-04-13,AMH,"Atlanta, GA","161 Sapling Way, Dallas, GA, 30132","Atlanta, GA",AMH-GA20081,4,2.5,2078,2450.0,2026-05-10,12 months,False,,,,,,,,https://www.amh.com/query?criteria=Atlanta%2C+GA,2026-04-13,2026-04-13,GA,Dallas,33.952158,-84.800453,,,GA20081
2026-04-13,AMH,"Atlanta, GA","228 Sapling Way, Dallas, GA, 30132","Atlanta, GA",AMH-GA20090,4,2.5,2078,2470.0,2026-05-07,12 months,False,,,,,,,,https://www.amh.com/query?criteria=Atlanta%2C+GA,2026-04-13,2026-04-13,GA,Dallas,33.952569,-84.801389,,,GA20090
2026-04-13,AMH,"Atlanta, GA","2122 Windsor Park Avenue, Dacula, GA, 30019","Atlanta, GA",AMH-GA20211,5,3.0,2513,2740.0,2026-05-06,12 months,False,,,,,,,,https://www.amh.com/query?criteria=Atlanta%2C+GA,2026-04-13,2026-04-13,GA,Dacula,34.00896,-83.93077,,,GA20211
2026-04-13,AMH,"Atlanta, GA","1802 Windsor Park Avenue, Dacula, GA, 30019","Atlanta, GA",AMH-GA20235,5,3.0,2850,3025.0,2026-04-29,12 months,False,,,,,,,,https://www.amh.com/query?criteria=Atlanta%2C+GA,2026-04-13,2026-04-13,GA,Dacula,34.01087,-83.93593,,,GA20235
2026-04-13,AMH,"Atlanta, GA","1020 Allenbrook Lane, Roswell, GA, 30075","Atlanta, GA",AMH-GAA0273,4,2.5,2572,3495.0,2026-05-15,12 months,False,,,,,,,,https://www.amh.com/query?criteria=Atlanta%2C+GA,2026-04-13,2026-04-13,GA,Roswell,34.047771,-84.371681,,,GAA0273
2026-04-13,AMH,"Atlanta, GA","228 Moreland Circle, Hiram, GA, 30141","Atlanta, GA",AMH-GA13279,3,2.0,1501,2040.0,2026-04-16,12 months,False,,,,,,,,https://www.amh.com/query?criteria=Atlanta%2C+GA,2026-04-13,2026-04-13,GA,Hiram,33.909798,-84.737045,,,GA13279
2026-04-13,AMH,"Atlanta, GA","1658 Aquamarine Drive, Loganville, GA, 30052","Atlanta, GA",AMH-GA23006,4,2.5,2068,2475.0,2026-07-31,12 months,False,,,,,,,,https://www.amh.com/query?criteria=Atlanta%2C+GA,2026-04-13,2026-04-13,GA,Loganville,33.894789,-83.885,,,GA23006
2026-04-13,AMH,"Atlanta, GA","930 W Oaks Drive, Woodstock, GA, 30188","Atlanta, GA",AMH-GA12494,3,2.5,1232,2135.0,2026-06-08,12 months,False,,,,,,,,https://www.amh.com/query?criteria=Atlanta%2C+GA,2026-04-13,2026-04-13,GA,Woodstock,34.081219,-84.492958,,,GA12494
2026-04-13,AMH,"Atlanta, GA","950 Carnelian Lane, Loganville, GA, 30052","Atlanta, GA",AMH-GA22910,4,2.5,2068,2475.0,2026-05-31,12 months,False,,,,,,,,https://www.amh.com/query?criteria=Atlanta%2C+GA,2026-04-13,2026-04-13,GA,Loganville,33.893533,-83.8899,,,GA22910
2026-04-13,AMH,"Atlanta, GA","2485 Sheldon Place, Cumming, GA, 30040","Atlanta, GA",AMH-GA12948,3,2.5,1988,2305.0,2026-05-26,12 months,False,,,,,,,,https://www.amh.com/query?criteria=Atlanta%2C+GA,2026-04-13,2026-04-13,GA,Cumming,34.234398,-84.10231,,,GA12948
2026-04-13,AMH,"Atlanta, GA","930 Carnelian Lane, Loganville, GA, 30052","Atlanta, GA",AMH-GA22908,4,2.5,2068,2470.0,2026-04-24,12 months,False,,,,,,,,https://www.amh.com/query?criteria=Atlanta%2C+GA,2026-04-13,2026-04-13,GA,Loganville,33.893375,-83.8903,,,GA22908
2026-04-13,AMH,"Atlanta, GA","1568 Aquamarine Drive, Loganville, GA, 30052","Atlanta, GA",AMH-GA23015,4,2.5,2068,2480.0,2026-06-30,12 months,False,,,,,,,,https://www.amh.com/query?criteria=Atlanta%2C+GA,2026-04-13,2026-04-13,GA,Loganville,33.893644,-83.8861,,,GA23015
2026-04-13,AMH,"Atlanta, GA","1598 Aquamarine Drive, Loganville, GA, 30052","Atlanta, GA",AMH-GA23012,4,2.5,2068,2480.0,2026-06-30,12 months,False,,,,,,,,https://www.amh.com/query?criteria=Atlanta%2C+GA,2026-04-13,2026-04-13,GA,Loganville,33.894025,-83.8857,,,GA23012
2026-04-13,AMH,"Atlanta, GA","2267 Rocksram Court, Buford, GA, 30519","Atlanta, GA",AMH-GA14543,5,3.0,2863,3025.0,2026-04-25,12 months,False,,,,,,,,https://www.amh.com/query?criteria=Atlanta%2C+GA,2026-04-13,2026-04-13,GA,Buford,34.045943,-83.960775,,,GA14543
2026-04-13,AMH,"Atlanta, GA","1522 Cutters Mill Drive, Lithonia, GA, 30058","Atlanta, GA",AMH-GA14178,4,2.5,2032,2055.0,2026-04-17,12 months,False,,,,,,,,https://www.amh.com/query?criteria=Atlanta%2C+GA,2026-04-13,2026-04-13,GA,Lithonia,33.75296,-84.104652,,,GA14178
2026-04-13,AMH,"Atlanta, GA","597 Woodall Road, Stockbridge, GA, 30281","Atlanta, GA",AMH-GA19299,3,2.5,1940,2330.0,2026-04-09,12 months,False,,,,,,,,https://www.amh.com/query?criteria=Atlanta%2C+GA,2026-04-13,2026-04-13,GA,Stockbridge,33.568046,-84.239867,,,GA19299
2026-04-13,AMH,"Atlanta, GA","1099 Ashlyn Court, Lawrenceville, GA, 30043","Atlanta, GA",AMH-GA19485,4,2.5,2449,2580.0,2026-04-29,12 months,False,,,,,,,,https://www.amh.com/query?criteria=Atlanta%2C+GA,2026-04-13,2026-04-13,GA,Lawrenceville,34.0452,-83.9578,,,GA19485
2026-04-13,AMH,"Atlanta, GA","3510 Bogan Mill Road, Buford, GA, 30519","Atlanta, GA",AMH-GA16357,4,2.5,2825,2755.0,2026-06-07,12 months,False,,,,,,,,https://www.amh.com/query?criteria=Atlanta%2C+GA,2026-04-13,2026-04-13,GA,Buford,34.099109,-83.948681,,,GA16357
2026-04-13,AMH,"Atlanta, GA","404 Waverly Forest Court, Lawrenceville, GA, 30045","Atlanta, GA",AMH-GA16781,4,2.0,1570,2160.0,2026-06-07,12 months,False,,,,,,,,https://www.amh.com/query?criteria=Atlanta%2C+GA,2026-04-13,2026-04-13,GA,Lawrenceville,33.914986,-83.933701,,,GA16781
2026-04-13,AMH,"Atlanta, GA","650 Lorimore Pass, Canton, GA, 30115","Atlanta, GA",AMH-GA15828,4,2.5,2423,2580.0,2026-06-07,12 months,False,,,,,,,,https://www.amh.com/query?criteria=Atlanta%2C+GA,2026-04-13,2026-04-13,GA,Canton,34.174139,-84.458519,,,GA15828
2026-04-13,AMH,"Atlanta, GA","581 Thornbush Trace, Lawrenceville, GA, 30046","Atlanta, GA",AMH-GA18086,3,2.5,2141,2350.0,2026-06-05,12 months,False,,,,,,,,https://www.amh.com/query?criteria=Atlanta%2C+GA,2026-04-13,2026-04-13,GA,Lawrenceville,33.934846,-84.005446,,,GA18086
2026-04-13,AMH,"Atlanta, GA","2342 Crimson Creek Lane, Snellville, GA, 30078","Atlanta, GA",AMH-GA17915,4,2.5,2200,2420.0,2026-06-05,12 months,False,,,,,,,,https://www.amh.com/query?criteria=Atlanta%2C+GA,2026-04-13,2026-04-13,GA,Snellville,33.833037,-83.997282,,,GA17915
2026-04-13,AMH,"Atlanta, GA","7749 Birdsview Drive, Fairburn, GA, 30213","Atlanta, GA",AMH-GA14570,5,3.0,2853,2725.0,2026-04-16,12 months,False,,,,,,,,https://www.amh.com/query?criteria=Atlanta%2C+GA,2026-04-13,2026-04-13,GA,Fairburn,33.579025,-84.64463,,,GA14570
2026-04-13,AMH,"Atlanta, GA","3347 Emzy Drive, Loganville, GA, 30052","Atlanta, GA",AMH-GA22511,3,2.5,2037,2375.0,2026-05-31,12 months,False,,,,,,,,https://www.amh.com/query?criteria=Atlanta%2C+GA,2026-04-13,2026-04-13,GA,Loganville,33.88854,-83.897416,,,GA22511
2026-04-13,AMH,"Atlanta, GA","3407 Emzy Drive, Loganville, GA, 30052","Atlanta, GA",AMH-GA22514,3,2.5,2037,2380.0,2026-06-30,12 months,False,,,,,,,,https://www.amh.com/query?criteria=Atlanta%2C+GA,2026-04-13,2026-04-13,GA,Loganville,33.88803,-83.897649,,,GA22514
2026-04-13,AMH,"Atlanta, GA","3597 O'Kelly Drive, Loganville, GA, 30052","Atlanta, GA",AMH-GA16878,4,2.5,2440,2450.0,2026-05-29,12 months,False,,,,,,,,https://www.amh.com/query?criteria=Atlanta%2C+GA,2026-04-13,2026-04-13,GA,Loganville,33.855088,-83.928173,,,GA16878
2026-04-13,AMH,"Atlanta, GA","417 Oscar Way, Dallas, GA, 30132","Atlanta, GA",AMH-GA17513,3,2.5,1805,2000.0,2026-05-27,12 months,False,,,,,,,,https://www.amh.com/query?criteria=Atlanta%2C+GA,2026-04-13,2026-04-13,GA,Dallas,33.935632,-84.838685,,,GA17513
2026-04-13,AMH,"Atlanta, GA","3430 Ridge Hill Parkway, Douglasville, GA, 30135","Atlanta, GA",AMH-GA19177,4,2.5,2002,2305.0,2026-05-19,12 months,False,,,,,,,,https://www.amh.com/query?criteria=Atlanta%2C+GA,2026-04-13,2026-04-13,GA,Douglasville,33.680497,-84.685091,,,GA19177
2026-04-13,AMH,"Atlanta, GA","502 Cash Circle, Loganville, GA, 30052","Atlanta, GA",AMH-GA17668,4,2.5,2070,2380.0,2026-05-17,12 months,False,,,,,,,,https://www.amh.com/query?criteria=Atlanta%2C+GA,2026-04-13,2026-04-13,GA,Loganville,33.850939,-83.881169,,,GA17668
2026-04-13,AMH,"Atlanta, GA","209 McBee Place, Dallas, GA, 30132","Atlanta, GA",AMH-GA17446,3,2.0,1606,2015.0,2026-05-15,12 months,False,,,,,,,,https://www.amh.com/query?criteria=Atlanta%2C+GA,2026-04-13,2026-04-13,GA,Dallas,33.926574,-84.848109,,,GA17446
2026-04-13,AMH,"Atlanta, GA","113 Pecan Drive, Dallas, GA, 30132","Atlanta, GA",AMH-GA20149,4,2.5,2078,2510.0,2026-04-28,12 months,False,,,,,,,,https://www.amh.com/query?criteria=Atlanta%2C+GA,2026-04-13,2026-04-13,GA,Dallas,33.955225,-84.797269,,,GA20149
2026-04-13,AMH,"Atlanta, GA","2117 Steffi Lane NW, Lawrenceville, GA, 30044","Atlanta, GA",AMH-GA20789,3,2.0,1580,2215.0,2026-05-15,12 months,False,,,,,,,,https://www.amh.com/query?criteria=Atlanta%2C+GA,2026-04-13,2026-04-13,GA,Lawrenceville,33.947427,-84.062396,,,GA20789
2026-04-13,AMH,"Atlanta, GA","3331 Birchwood Trail, Snellville, GA, 30078","Atlanta, GA",AMH-GA14229,3,2.5,1552,2235.0,2026-06-04,12 months,False,,,,,,,,https://www.amh.com/query?criteria=Atlanta%2C+GA,2026-04-13,2026-04-13,GA,Snellville,33.850868,-84.053757,,,GA14229
2026-04-13,AMH,"Atlanta, GA","2923 Villa Lake Drive, Powder Springs, GA, 30127","Atlanta, GA",AMH-GA17772,4,2.5,2660,2495.0,2026-06-04,12 months,False,,,,,,,,https://www.amh.com/query?criteria=Atlanta%2C+GA,2026-04-13,2026-04-13,GA,Powder Springs,33.881616,-84.669056,,,GA17772
2026-04-13,AMH,"Atlanta, GA","3872 Rosebud Park Drive, Snellville, GA, 30039","Atlanta, GA",AMH-GA20022,5,2.5,2695,2480.0,2026-06-04,12 months,False,,,,,,,,https://www.amh.com/query?criteria=Atlanta%2C+GA,2026-04-13,2026-04-13,GA,Snellville,33.77345,-84.003855,,,GA20022
2026-04-13,AMH,"Atlanta, GA","6465 Chestnut Bend Drive, Norcross, GA, 30071","Atlanta, GA",AMH-GAA0410,3,2.0,1479,2370.0,2026-06-03,12 months,False,,,,,,,,https://www.amh.com/query?criteria=Atlanta%2C+GA,2026-04-13,2026-04-13,GA,Norcross,33.92222,-84.22896,,,GAA0410
2026-04-13,AMH,"Atlanta, GA","1300 Summit Point Lane, Snellville, GA, 30078","Atlanta, GA",AMH-GA16112,4,2.5,2094,2290.0,2026-06-02,12 months,False,,,,,,,,https://www.amh.com/query?criteria=Atlanta%2C+GA,2026-04-05,2026-04-13,GA,Snellville,33.857684,-83.967239,,,GA16112
2026-04-13,AMH,"Atlanta, GA","2835 Shane Drive, Snellville, GA, 30078","Atlanta, GA",AMH-GA15625,3,2.0,1416,1955.0,2026-06-02,12 months,False,,,,,,,,https://www.amh.com/query?criteria=Atlanta%2C+GA,2026-04-05,2026-04-13,GA,Snellville,33.834185,-84.028519,,,GA15625
2026-04-13,AMH,"Atlanta, GA","3207 Trinity Grove Drive, Dacula, GA, 30019","Atlanta, GA",AMH-GA18569,4,3.5,2890,2965.0,2026-05-31,12 months,False,,,,,,,,https://www.amh.com/query?criteria=Atlanta%2C+GA,2026-04-05,2026-04-13,GA,Dacula,34.050814,-83.916774,,,GA18569
2026-04-13,AMH,"Atlanta, GA","1454 Chamirey Dr SW, Marietta, GA, 30008","Atlanta, GA",AMH-GA00553,5,3.5,2254,2895.0,2026-05-15,12 months,False,,,,,,,,https://www.amh.com/query?criteria=Atlanta%2C+GA,2026-04-05,2026-04-13,GA,Marietta,33.904266,-84.595779,,,GA00553
2026-04-13,AMH,"Atlanta, GA","311 Barberry Place, Canton, GA, 30114","Atlanta, GA",AMH-GA15910,3,2.5,1882,2195.0,2026-05-15,12 months,False,,,,,,,,https://www.amh.com/query?criteria=Atlanta%2C+GA,2026-04-05,2026-04-13,GA,Canton,34.188344,-84.513352,,,GA15910
2026-04-13,AMH,"Atlanta, GA","2607 Peach Shoals Circle, Dacula, GA, 30019","Atlanta, GA",AMH-GA23601,4,2.5,2452,2330.0,2026-04-24,12 months,False,,,,,,,,https://www.amh.com/query?criteria=Atlanta%2C+GA,2026-04-05,2026-04-13,GA,Dacula,34.004562,-83.928624,,,GA23601
2026-04-13,AMH,"Atlanta, GA","710 Ridgewood Way, Canton, GA, 30114","Atlanta, GA",AMH-GA15634,3,2.5,1692,2095.0,2026-04-13,12 months,False,,,,,,,,https://www.amh.com/query?criteria=Atlanta%2C+GA,2026-04-05,2026-04-13,GA,Canton,34.257736,-84.499329,,,GA15634
2026-04-13,AMH,"Atlanta, GA","51 Wayne Meadows Court, Douglasville, GA, 30134","Atlanta, GA",AMH-GA17137,5,2.0,2980,2495.0,2026-04-10,12 months,False,,,,,,,,https://www.amh.com/query?criteria=Atlanta%2C+GA,2026-04-05,2026-04-13,GA,Douglasville,33.803706,-84.833539,,,GA17137
2026-04-13,AMH,"Atlanta, GA","3094 Perch Overlook, Marietta, GA, 30060","Atlanta, GA",AMH-GA16952,3,2.5,1900,2160.0,2026-05-15,12 months,False,,,,,,,,https://www.amh.com/query?criteria=Atlanta%2C+GA,2026-04-05,2026-04-13,GA,Marietta,33.877689,-84.619414,,,GA16952
2026-04-13,AMH,"Atlanta, GA","881 Headland Way, Canton, GA, 30114","Atlanta, GA",AMH-GA19793,4,2.5,2098,2500.0,2026-05-16,12 months,False,,,,,,,,https://www.amh.com/query?criteria=Atlanta%2C+GA,2026-04-05,2026-04-13,GA,Canton,34.263995,-84.458849,,,GA19793
2026-04-13,AMH,"Atlanta, GA","589 Summit View Lane, Canton, GA, 30114","Atlanta, GA",AMH-GA19655,4,2.5,2098,2555.0,2026-05-26,12 months,False,,,,,,,,https://www.amh.com/query?criteria=Atlanta%2C+GA,2026-04-05,2026-04-13,GA,Canton,34.265585,-84.459027,,,GA19655
2026-04-13,AMH,"Atlanta, GA","724 Johnson Court, Stockbridge, GA, 30281","Atlanta, GA",AMH-GA14494,4,2.5,2048,2330.0,2026-04-16,12 months,False,,,,,,,,https://www.amh.com/query?criteria=Atlanta%2C+GA,2026-04-05,2026-04-13,GA,Stockbridge,33.52626,-84.236092,,,GA14494
2026-04-13,AMH,"Atlanta, GA","1864 Tulip Petal Road, Auburn, GA, 30011","Atlanta, GA",AMH-GA14397,4,2.5,1908,2305.0,2026-06-01,12 months,False,,,,,,,,https://www.amh.com/query?criteria=Atlanta%2C+GA,2026-04-05,2026-04-13,GA,Auburn,34.082126,-83.868748,,,GA14397
2026-04-13,AMH,"Atlanta, GA","2482 Napa Valley Drive, Villa Rica, GA, 30180","Atlanta, GA",AMH-GA19117,4,3.0,2090,2190.0,2026-04-16,12 months,False,,,,,,,,https://www.amh.com/query?criteria=Atlanta%2C+GA,2026-04-05,2026-04-13,GA,Villa Rica,33.751438,-84.867436,,,GA19117
2026-04-13,AMH,"Atlanta, GA","144 Lindridge Drive, Lilburn, GA, 30047","Atlanta, GA",AMH-GA17838,4,2.5,2401,2590.0,2026-05-14,12 months,False,,,,,,,,https://www.amh.com/query?criteria=Atlanta%2C+GA,2026-04-05,2026-04-13,GA,Lilburn,33.8871,-84.116136,,,GA17838
2026-04-13,AMH,"Atlanta, GA","3575 Hanna Hill Road, Loganville, GA, 30052","Atlanta, GA",AMH-GA22552,3,2.5,2037,2370.0,2026-04-13,12 months,False,,,,,,,,https://www.amh.com/query?criteria=Atlanta%2C+GA,2026-04-05,2026-04-13,GA,Loganville,33.887974,-83.898673,,,GA22552
2026-04-13,AMH,"Atlanta, GA","1811 Ranch View Drive, Dacula, GA, 30019","Atlanta, GA",AMH-GA23671,7,4.0,4248,3585.0,2026-05-05,12 months,False,,,,,,,,https://www.amh.com/query?criteria=Atlanta%2C+GA,2026-04-05,2026-04-13,GA,Dacula,33.953446,-83.90276,,,GA23671
2026-04-13,AMH,"Atlanta, GA","357 Golucke Way, McDonough, GA, 30252","Atlanta, GA",AMH-GA22152,5,4.0,2714,2935.0,2026-06-30,12 months,False,,,,,,,,https://www.amh.com/query?criteria=Atlanta%2C+GA,2026-04-05,2026-04-13,GA,McDonough,33.43821,-84.03753,,,GA22152
2026-04-13,AMH,"Atlanta, GA","2103 Yarbrough Way, Dacula, GA, 30019","Atlanta, GA",AMH-GA14573,3,2.0,1685,2235.0,2026-05-20,12 months,False,,,,,,,,https://www.amh.com/query?criteria=Atlanta%2C+GA,2026-04-05,2026-04-13,GA,Dacula,33.994247,-83.918803,,,GA14573
2026-04-13,AMH,"Atlanta, GA","322 Hillcrest Lane, Canton, GA, 30115","Atlanta, GA",AMH-GA13663,3,2.5,1392,1905.0,2026-05-16,12 months,False,,,,,,,,https://www.amh.com/query?criteria=Atlanta%2C+GA,2026-04-05,2026-04-13,GA,Canton,34.225541,-84.472161,,,GA13663
2026-04-13,AMH,"Atlanta, GA","231 Bandelier Circle, Hampton, GA, 30228","Atlanta, GA",AMH-GA16719,4,2.5,2024,2355.0,2026-04-10,12 months,False,,,,,,,,https://www.amh.com/query?criteria=Atlanta%2C+GA,2026-04-05,2026-04-13,GA,Hampton,33.451268,-84.24884,,,GA16719
2026-04-13,AMH,"Atlanta, GA","125 Cobbler Cove Drive, Dallas, GA, 30132","Atlanta, GA",AMH-GA15080,3,2.5,1650,1955.0,2026-05-31,12 months,False,,,,,,,,https://www.amh.com/query?criteria=Atlanta%2C+GA,2026-04-05,2026-04-13,GA,Dallas,33.911816,-84.78537,,,GA15080
2026-04-13,AMH,"Atlanta, GA","2088 White Top Road, Lawrenceville, GA, 30045","Atlanta, GA",AMH-GA13352,3,2.5,2010,2320.0,2026-05-31,12 months,False,,,,,,,,https://www.amh.com/query?criteria=Atlanta%2C+GA,2026-04-05,2026-04-13,GA,Lawrenceville,33.912109,-83.929765,,,GA13352
2026-04-13,AMH,"Atlanta, GA","134 Richmond Drive, Hiram, GA, 30141","Atlanta, GA",AMH-GA14924,3,2.5,1387,1895.0,2026-05-30,12 months,False,,,,,,,,https://www.amh.com/query?criteria=Atlanta%2C+GA,2026-04-05,2026-04-13,GA,Hiram,33.908718,-84.738327,,,GA14924
2026-04-13,AMH,"Atlanta, GA","258 Harmony Lake Drive, Canton, GA, 30115","Atlanta, GA",AMH-GA18346,4,2.5,2440,2715.0,2026-05-30,12 months,False,,,,,,,,https://www.amh.com/query?criteria=Atlanta%2C+GA,2026-04-05,2026-04-13,GA,Canton,34.185995,-84.449766,,,GA18346
2026-04-13,AMH,"Atlanta, GA","214 Hidden Creek Point, Canton, GA, 30114","Atlanta, GA",AMH-GA16281,4,2.5,2320,2495.0,2026-05-21,12 months,False,,,,,,,,https://www.amh.com/query?criteria=Atlanta%2C+GA,2026-04-05,2026-04-13,GA,Canton,34.1819,-84.51281,,,GA16281
2026-04-13,AMH,"Atlanta, GA","256 Sandstone Drive, Hampton, GA, 30228","Atlanta, GA",AMH-GA13627,4,2.0,1920,2170.0,2026-05-29,12 months,False,,,,,,,,https://www.amh.com/query?criteria=Atlanta%2C+GA,2026-04-05,2026-04-13,GA,Hampton,33.396684,-84.286352,,,GA13627
2026-04-13,AMH,"Atlanta, GA","94 Crestview Drive, Dallas, GA, 30157","Atlanta, GA",AMH-GA13098,4,2.5,2099,2150.0,2026-05-13,12 months,False,,,,,,,,https://www.amh.com/query?criteria=Atlanta%2C+GA,2026-04-05,2026-04-13,GA,Dallas,33.91705,-84.76155,,,GA13098
2026-04-13,AMH,"Atlanta, GA","2921 Knoll View Place, Douglasville, GA, 30135","Atlanta, GA",AMH-GA16847,3,2.0,1486,1895.0,2026-05-28,12 months,False,,,,,,,,https://www.amh.com/query?criteria=Atlanta%2C+GA,2026-04-05,2026-04-13,GA,Douglasville,33.688276,-84.671753,,,GA16847
2026-04-13,AMH,"Atlanta, GA","4649 Howell Farms Drive NW, Acworth, GA, 30101","Atlanta, GA",AMH-GA15140,4,2.5,2247,2465.0,2026-05-28,12 months,False,,,,,,,,https://www.amh.com/query?criteria=Atlanta%2C+GA,2026-04-05,2026-04-13,GA,Acworth,34.07013,-84.621973,,,GA15140
2026-04-13,AMH,"Atlanta, GA","1720 Mission Park Court, Loganville, GA, 30052","Atlanta, GA",AMH-GA19958,4,2.5,2123,2295.0,2026-05-28,12 months,False,,,,,,,,https://www.amh.com/query?criteria=Atlanta%2C+GA,2026-04-05,2026-04-13,GA,Loganville,33.823054,-83.961284,,,GA19958
2026-04-13,AMH,"Atlanta, GA","3805 Hawk Tail Drive, Loganville, GA, 30052","Atlanta, GA",AMH-GA17570,3,2.0,1878,2250.0,2026-05-27,12 months,False,,,,,,,,https://www.amh.com/query?criteria=Atlanta%2C+GA,2026-04-05,2026-04-13,GA,Loganville,33.872065,-83.875479,,,GA17570
2026-04-13,AMH,"Atlanta, GA","3454 Mackenzie Court, Powder Springs, GA, 30127","Atlanta, GA",AMH-GA15528,4,3.0,2800,2715.0,2026-04-29,12 months,False,,,,,,,,https://www.amh.com/query?criteria=Atlanta%2C+GA,2026-04-05,2026-04-13,GA,Powder Springs,33.881203,-84.656334,,,GA15528
2026-04-13,AMH,"Atlanta, GA","1514 Shadow Ridge Circle, Woodstock, GA, 30189","Atlanta, GA",AMH-GA16211,3,2.5,2164,2430.0,2026-05-26,12 months,False,,,,,,,,https://www.amh.com/query?criteria=Atlanta%2C+GA,2026-04-05,2026-04-13,GA,Woodstock,34.136169,-84.58304,,,GA16211
2026-04-13,AMH,"Atlanta, GA","2933 Eureka Circle, Douglasville, GA, 30135","Atlanta, GA",AMH-GA14131,5,2.5,2296,2320.0,2026-05-26,12 months,False,,,,,,,,https://www.amh.com/query?criteria=Atlanta%2C+GA,2026-04-05,2026-04-13,GA,Douglasville,33.679623,-84.673431,,,GA14131
2026-04-13,AMH,"Atlanta, GA","63 Moonrise Crossing, Dallas, GA, 30132","Atlanta, GA",AMH-GA17003,4,2.5,1983,2135.0,2026-05-08,12 months,False,,,,,,,,https://www.amh.com/query?criteria=Atlanta%2C+GA,2026-04-05,2026-04-13,GA,Dallas,34.051693,-84.796049,,,GA17003
2026-04-13,AMH,"Atlanta, GA","2809 Waterstone Court, Marietta, GA, 30062","Atlanta, GA",AMH-GA18220,4,2.5,2067,2825.0,2026-04-10,12 months,False,,,,,,,,https://www.amh.com/query?criteria=Atlanta%2C+GA,2026-04-05,2026-04-13,GA,Marietta,34.014838,-84.4883,,,GA18220
2026-04-13,AMH,"Atlanta, GA","205 Daventry Way, Woodstock, GA, 30188","Atlanta, GA",AMH-GA20210,3,2.5,1360,2275.0,2026-05-25,12 months,False,,,,,,,,https://www.amh.com/query?criteria=Atlanta%2C+GA,2026-04-05,2026-04-13,GA,Woodstock,34.081065,-84.444143,,,GA20210
2026-04-13,AMH,"Atlanta, GA","2478 Napa Valley Drive, Villa Rica, GA, 30180","Atlanta, GA",AMH-GA19118,3,2.5,1891,2025.0,2026-04-15,12 months,False,,,,,,,,https://www.amh.com/query?criteria=Atlanta%2C+GA,2026-04-05,2026-04-13,GA,Villa Rica,33.751363,-84.867222,,,GA19118
2026-04-13,AMH,"Atlanta, GA","1350 Ashlyn Court, Lawrenceville, GA, 30043","Atlanta, GA",AMH-GA19511,5,3.0,2850,2700.0,2026-05-03,12 months,False,,,,,,,,https://www.amh.com/query?criteria=Atlanta%2C+GA,2026-04-05,2026-04-13,GA,Lawrenceville,34.0467,-83.9581,,,GA19511
2026-04-13,AMH,"Atlanta, GA","4680 Spring Wood Trce, Cumming, GA, 30041","Atlanta, GA",AMH-GAA0280,5,4.0,3662,3630.0,2026-05-25,12 months,False,,,,,,,,https://www.amh.com/query?criteria=Atlanta%2C+GA,2026-04-05,2026-04-13,GA,Cumming,34.15992,-84.091278,,,GAA0280
2026-04-13,AMH,"Atlanta, GA","2902 Edgefield Court SW, Marietta, GA, 30008","Atlanta, GA",AMH-GA15707,4,3.0,1555,2295.0,2026-05-07,12 months,False,,,,,,,,https://www.amh.com/query?criteria=Atlanta%2C+GA,2026-04-05,2026-04-13,GA,Marietta,33.878151,-84.590141,,,GA15707
2026-04-13,AMH,"Atlanta, GA","201 Red Oak Lane, Alpharetta, GA, 30009","Atlanta, GA",AMH-GA16106,3,2.0,1858,2975.0,2026-05-24,12 months,False,,,,,,,,https://www.amh.com/query?criteria=Atlanta%2C+GA,2026-04-05,2026-04-13,GA,Alpharetta,34.077038,-84.286041,,,GA16106
2026-04-13,AMH,"Atlanta, GA","3114 Golfe Links Court, Snellville, GA, 30039","Atlanta, GA",AMH-GA14280,3,2.5,2224,2055.0,2026-05-19,12 months,False,,,,,,,,https://www.amh.com/query?criteria=Atlanta%2C+GA,2026-04-05,2026-04-13,GA,Snellville,33.818447,-84.022728,,,GA14280
2026-04-13,AMH,"Atlanta, GA","710 Pear Grove Place, Marietta, GA, 30066","Atlanta, GA",AMH-GA18488,4,2.5,2222,2725.0,2026-05-23,12 months,False,,,,,,,,https://www.amh.com/query?criteria=Atlanta%2C+GA,2026-04-05,2026-04-13,GA,Marietta,33.990181,-84.572026,,,GA18488
2026-04-13,AMH,"Atlanta, GA","5285 Hudson Valley Drive, Cumming, GA, 30028","Atlanta, GA",AMH-GA18391,4,2.5,2297,2825.0,2026-05-14,12 months,False,,,,,,,,https://www.amh.com/query?criteria=Atlanta%2C+GA,2026-04-05,2026-04-13,GA,Cumming,34.2434,-84.2551,,,GA18391
2026-04-13,AMH,"Atlanta, GA","332 Sunderland Way, Stockbridge, GA, 30281","Atlanta, GA",AMH-GA16464,5,3.0,2973,2710.0,2026-05-23,12 months,False,,,,,,,,https://www.amh.com/query?criteria=Atlanta%2C+GA,2026-04-05,2026-04-13,GA,Stockbridge,33.521725,-84.259048,,,GA16464
2026-04-13,AMH,"Atlanta, GA","586 Slew Drive, Holly Springs, GA, 30115","Atlanta, GA",AMH-GA19035,5,3.5,3341,3200.0,2026-05-15,12 months,False,,,,,,,,https://www.amh.com/query?criteria=Atlanta%2C+GA,2026-04-05,2026-04-13,GA,Holly Springs,34.2021,-84.4614,,,GA19035
2026-04-13,AMH,"Atlanta, GA","32 Landsdown Crossing, Dallas, GA, 30157","Atlanta, GA",AMH-GA19399,4,2.5,1941,2150.0,2026-05-16,12 months,False,,,,,,,,https://www.amh.com/query?criteria=Atlanta%2C+GA,2026-04-05,2026-04-13,GA,Dallas,33.961367,-84.757847,,,GA19399
2026-04-13,AMH,"Atlanta, GA","204 Carrie Drive, Dallas, GA, 30157","Atlanta, GA",AMH-GA16966,3,2.5,1974,2005.0,2026-05-07,12 months,False,,,,,,,,https://www.amh.com/query?criteria=Atlanta%2C+GA,2026-04-05,2026-04-13,GA,Dallas,33.948566,-84.767471,,,GA16966
2026-04-13,AMH,"Atlanta, GA","41 Stallion Run, Dallas, GA, 30132","Atlanta, GA",AMH-GA13892,3,2.0,1777,1940.0,2026-04-29,12 months,False,,,,,,,,https://www.amh.com/query?criteria=Atlanta%2C+GA,2026-04-05,2026-04-13,GA,Dallas,33.954756,-84.828428,,,GA13892
2026-04-13,AMH,"Atlanta, GA","440 Argonne Terrace, Canton, GA, 30115","Atlanta, GA",AMH-GA00153,3,2.0,1642,2205.0,2026-05-21,12 months,False,,,,,,,,https://www.amh.com/query?criteria=Atlanta%2C+GA,2026-04-05,2026-04-13,GA,Canton,34.193947,-84.451721,,,GA00153
2026-04-13,AMH,"Atlanta, GA","123 Ivy Mill Way, Dallas, GA, 30132","Atlanta, GA",AMH-GA17764,3,2.0,1220,1900.0,2026-05-21,12 months,False,,,,,,,,https://www.amh.com/query?criteria=Atlanta%2C+GA,2026-04-05,2026-04-13,GA,Dallas,33.90288,-84.83541,,,GA17764
2026-04-13,AMH,"Atlanta, GA","1545 Maple Pointe Court, Lawrenceville, GA, 30043","Atlanta, GA",AMH-GA12093,3,2.0,1863,2265.0,2026-04-25,12 months,False,,,,,,,,https://www.amh.com/query?criteria=Atlanta%2C+GA,2026-04-05,2026-04-13,GA,Lawrenceville,33.967319,-84.073547,,,GA12093
2026-04-13,AMH,"Atlanta, GA","4855 Lake Park Terrace, Acworth, GA, 30101","Atlanta, GA",AMH-GA13189,3,2.5,2224,2385.0,2026-05-20,12 months,False,,,,,,,,https://www.amh.com/query?criteria=Atlanta%2C+GA,2026-04-05,2026-04-13,GA,Acworth,34.069965,-84.639534,,,GA13189
2026-04-13,AMH,"Atlanta, GA","556 Crestmont Lane, Canton, GA, 30114","Atlanta, GA",AMH-GA15701,4,2.5,2463,2565.0,2026-05-20,12 months,False,,,,,,,,https://www.amh.com/query?criteria=Atlanta%2C+GA,2026-04-05,2026-04-13,GA,Canton,34.170138,-84.521317,,,GA15701
2026-04-13,AMH,"Atlanta, GA","1509 Locomotive Drive, Conyers, GA, 30013","Atlanta, GA",AMH-GA15129,5,4.0,1800,2195.0,2026-05-16,12 months,False,,,,,,,,https://www.amh.com/query?criteria=Atlanta%2C+GA,2026-04-05,2026-04-13,GA,Conyers,33.637867,-83.966326,,,GA15129
2026-04-13,AMH,"Atlanta, GA","5810 Stephens Mill Drive, Sugar Hill, GA, 30518","Atlanta, GA",AMH-GA18524,4,2.5,1950,2375.0,2026-04-23,12 months,False,,,,,,,,https://www.amh.com/query?criteria=Atlanta%2C+GA,2026-04-05,2026-04-13,GA,Sugar Hill,34.12141,-84.06032,,,GA18524
2026-04-13,AMH,"Atlanta, GA","4970 Smoke Stone Drive, Douglasville, GA, 30135","Atlanta, GA",AMH-GA12979,5,3.5,2782,2780.0,2026-04-08,12 months,False,,,,,,,,https://www.amh.com/query?criteria=Atlanta%2C+GA,2026-04-05,2026-04-13,GA,Douglasville,33.68794,-84.73531,,,GA12979
2026-04-13,AMH,"Atlanta, GA","170 Hickory Pointe Loop, Dallas, GA, 30157","Atlanta, GA",AMH-GA21960,3,2.5,2037,2255.0,2026-05-31,12 months,False,,,,,,,,https://www.amh.com/query?criteria=Atlanta%2C+GA,2026-04-05,2026-04-13,GA,Dallas,33.839915,-84.83588,,,GA21960
2026-04-13,AMH,"Atlanta, GA","214 Hickory Pointe Loop, Dallas, GA, 30157","Atlanta, GA",AMH-GA21958,4,2.5,2293,2420.0,2026-04-06,12 months,False,,,,,,,,https://www.amh.com/query?criteria=Atlanta%2C+GA,2026-04-05,2026-04-13,GA,Dallas,33.840296,-84.836103,,,GA21958
2026-04-13,AMH,"Atlanta, GA","258 Hickory Pointe Loop, Dallas, GA, 30157","Atlanta, GA",AMH-GA21955,4,2.5,2293,2420.0,2026-04-24,12 months,False,,,,,,,,https://www.amh.com/query?criteria=Atlanta%2C+GA,2026-04-05,2026-04-13,GA,Dallas,33.841006,-84.836236,,,GA21955
2026-04-13,AMH,"Atlanta, GA","110 Dynasty Lane, Hiram, GA, 30141","Atlanta, GA",AMH-GA15805,4,2.5,2559,2320.0,2026-05-18,12 months,False,,,,,,,,https://www.amh.com/query?criteria=Atlanta%2C+GA,2026-04-05,2026-04-13,GA,Hiram,33.875668,-84.784554,,,GA15805
2026-04-13,AMH,"Atlanta, GA","103 Caitlin Court, Dallas, GA, 30132","Atlanta, GA",AMH-GA17503,4,3.5,2350,2310.0,2026-05-09,12 months,False,,,,,,,,https://www.amh.com/query?criteria=Atlanta%2C+GA,2026-04-05,2026-04-13,GA,Dallas,33.93406,-84.839891,,,GA17503
2026-04-13,AMH,"Atlanta, GA","4032 Haworth Parkway, McDonough, GA, 30253","Atlanta, GA",AMH-GA15435,4,2.5,2114,2195.0,2026-05-14,12 months,False,,,,,,,,https://www.amh.com/query?criteria=Atlanta%2C+GA,2026-04-05,2026-04-13,GA,McDonough,33.412538,-84.172722,,,GA15435
2026-04-13,AMH,"Atlanta, GA","5950 April Drive, Buford, GA, 30518","Atlanta, GA",AMH-GAA0077,3,2.0,1846,2115.0,2026-05-17,12 months,False,,,,,,,,https://www.amh.com/query?criteria=Atlanta%2C+GA,2026-04-05,2026-04-13,GA,Buford,34.131697,-84.051848,,,GAA0077
2026-04-13,AMH,"Atlanta, GA","260 Deodar Lane, Hampton, GA, 30228","Atlanta, GA",AMH-GA22043,4,3.0,1964,2490.0,2026-05-16,12 months,False,,,,,,,,https://www.amh.com/query?criteria=Atlanta%2C+GA,2026-04-05,2026-04-13,GA,Hampton,33.412271,-84.283618,,,GA22043
2026-04-13,AMH,"Atlanta, GA","3472 Skyland Ridge Court, Loganville, GA, 30052","Atlanta, GA",AMH-GA18320,4,2.5,2572,2425.0,2026-04-17,12 months,False,,,,,,,,https://www.amh.com/query?criteria=Atlanta%2C+GA,2026-04-05,2026-04-13,GA,Loganville,33.83297,-83.98729,,,GA18320
2026-04-13,AMH,"Atlanta, GA","540 Gables Court, Mcdonough, GA, 30253","Atlanta, GA",AMH-GA14733,4,2.5,2191,2380.0,2026-03-26,12 months,False,,,,,,,,https://www.amh.com/query?criteria=Atlanta%2C+GA,2026-04-05,2026-04-13,GA,Mcdonough,33.486897,-84.185432,,,GA14733
2026-04-13,AMH,"Atlanta, GA","1813 Cobblewood Trail, Kennesaw, GA, 30152","Atlanta, GA",AMH-GA17358,4,2.5,2414,2695.0,2026-05-18,12 months,False,,,,,,,,https://www.amh.com/query?criteria=Atlanta%2C+GA,2026-04-05,2026-04-13,GA,Kennesaw,33.99936,-84.64111,,,GA17358
2026-04-13,AMH,"Atlanta, GA","4294 Windale Drive, Lawrenceville, GA, 30044","Atlanta, GA",AMH-GA12527,4,2.5,1969,2350.0,2026-05-15,12 months,False,,,,,,,,https://www.amh.com/query?criteria=Atlanta%2C+GA,2026-04-05,2026-04-13,GA,Lawrenceville,33.936395,-84.038908,,,GA12527
2026-04-13,AMH,"Atlanta, GA","4305 Windale Drive, Lawrenceville, GA, 30044","Atlanta, GA",AMH-GA12528,3,2.5,2015,2405.0,2026-05-15,12 months,False,,,,,,,,https://www.amh.com/query?criteria=Atlanta%2C+GA,2026-04-05,2026-04-13,GA,Lawrenceville,33.936795,-84.038862,,,GA12528
2026-04-13,AMH,"Atlanta, GA","1469 Dulwich Court, Lawrenceville, GA, 30043","Atlanta, GA",AMH-GA00455,3,2.0,2596,2515.0,2026-05-15,12 months,False,,,,,,,,https://www.amh.com/query?criteria=Atlanta%2C+GA,2026-04-05,2026-04-13,GA,Lawrenceville,34.00374,-83.95391,,,GA00455
2026-04-13,AMH,"Atlanta, GA","1664 Crittenden Ln, Lawrenceville, GA, 30043","Atlanta, GA",AMH-GA00217,4,2.5,2801,2600.0,2026-05-15,12 months,False,,,,,,,,https://www.amh.com/query?criteria=Atlanta%2C+GA,2026-04-05,2026-04-13,GA,Lawrenceville,34.014591,-83.9832,,,GA00217
2026-04-13,AMH,"Atlanta, GA","811 Greenwood Crossing, Canton, GA, 30115","Atlanta, GA",AMH-GA15729,4,2.5,2023,2360.0,2026-05-15,12 months,False,,,,,,,,https://www.amh.com/query?criteria=Atlanta%2C+GA,2026-04-05,2026-04-13,GA,Canton,34.172847,-84.457173,,,GA15729
2026-04-13,AMH,"Atlanta, GA","1365 Morrow Drive, Bethlehem, GA, 30620","Atlanta, GA",AMH-GA14180,3,2.0,1502,2015.0,2026-05-14,12 months,False,,,,,,,,https://www.amh.com/query?criteria=Atlanta%2C+GA,2026-04-05,2026-04-13,GA,Bethlehem,33.907043,-83.745262,,,GA14180
2026-04-13,AMH,"Atlanta, GA","3150 Parfait Place, Acworth, GA, 30101","Atlanta, GA",AMH-GA12999,3,2.0,1348,2205.0,2026-05-14,12 months,False,,,,,,,,https://www.amh.com/query?criteria=Atlanta%2C+GA,2026-04-05,2026-04-13,GA,Acworth,34.068985,-84.642053,,,GA12999
2026-04-13,AMH,"Atlanta, GA","2766 Rocky Trail Court, Dacula, GA, 30019","Atlanta, GA",AMH-GA15061,4,2.5,2675,2700.0,2026-05-13,12 months,False,,,,,,,,https://www.amh.com/query?criteria=Atlanta%2C+GA,2026-04-05,2026-04-13,GA,Dacula,34.040451,-83.919121,,,GA15061
2026-04-13,AMH,"Atlanta, GA","168 Sable Trace Trail, Acworth, GA, 30102","Atlanta, GA",AMH-GA18182,4,3.0,2352,2525.0,2026-05-12,12 months,False,,,,,,,,https://www.amh.com/query?criteria=Atlanta%2C+GA,2026-04-05,2026-04-13,GA,Acworth,34.098796,-84.594284,,,GA18182
2026-04-13,AMH,"Atlanta, GA","3215 Deer Valley Drive NW, Acworth, GA, 30101","Atlanta, GA",AMH-GA15615,4,2.5,2484,2410.0,2026-05-12,12 months,False,,,,,,,,https://www.amh.com/query?criteria=Atlanta%2C+GA,2026-04-05,2026-04-13,GA,Acworth,34.033256,-84.728309,,,GA15615
2026-04-13,AMH,"Atlanta, GA","3664 Stonewall Drive NW, Kennesaw, GA, 30152","Atlanta, GA",AMH-GA15865,3,2.0,1316,1915.0,2026-04-17,12 months,False,,,,,,,,https://www.amh.com/query?criteria=Atlanta%2C+GA,2026-04-05,2026-04-13,GA,Kennesaw,34.026024,-84.657509,,,GA15865
2026-04-13,AMH,"Atlanta, GA","1028 Highland Walk, Canton, GA, 30114","Atlanta, GA",AMH-GA19740,3,2.5,1685,2340.0,2026-05-10,12 months,False,,,,,,,,https://www.amh.com/query?criteria=Atlanta%2C+GA,2026-04-05,2026-04-13,GA,Canton,34.263322,-84.45809,,,GA19740
2026-04-13,AMH,"Atlanta, GA","233 Biltmore Way, Stockbridge, GA, 30281","Atlanta, GA",AMH-GA13222,4,2.5,2679,2535.0,2026-04-15,12 months,False,,,,,,,,https://www.amh.com/query?criteria=Atlanta%2C+GA,2026-04-05,2026-04-13,GA,Stockbridge,33.521172,-84.157875,,,GA13222
2026-04-13,AMH,"Atlanta, GA","5520 Wheatfield Lane, Powder Springs, GA, 30127","Atlanta, GA",AMH-GA16008,3,2.5,2562,2375.0,2026-04-10,12 months,False,,,,,,,,https://www.amh.com/query?criteria=Atlanta%2C+GA,2026-04-05,2026-04-13,GA,Powder Springs,33.832413,-84.678833,,,GA16008
2026-04-13,AMH,"Atlanta, GA","76 Parkmont Court, Dallas, GA, 30132","Atlanta, GA",AMH-GA20419,4,2.5,2561,2590.0,2026-04-17,12 months,False,,,,,,,,https://www.amh.com/query?criteria=Atlanta%2C+GA,2026-04-05,2026-04-13,GA,Dallas,34.024063,-84.770033,,,GA20419
2026-04-13,AMH,"Atlanta, GA","5614 Dexters Mill Place, Buford, GA, 30518","Atlanta, GA",AMH-GA19226,4,2.0,1690,2250.0,2026-05-10,12 months,False,,,,,,,,https://www.amh.com/query?criteria=Atlanta%2C+GA,2026-04-05,2026-04-13,GA,Buford,34.135192,-84.024089,,,GA19226
2026-04-13,AMH,"Atlanta, GA","4620 Stonehaven View, Cumming, GA, 30040","Atlanta, GA",AMH-GA20778,4,2.5,2184,2645.0,2026-05-01,12 months,False,,,,,,,,https://www.amh.com/query?criteria=Atlanta%2C+GA,2026-04-05,2026-04-13,GA,Cumming,34.17769,-84.172683,,,GA20778
2026-04-13,AMH,"Atlanta, GA","361 Whitney Lane, McDonough, GA, 30253","Atlanta, GA",AMH-GA20649,4,3.0,2008,2585.0,2026-05-10,12 months,False,,,,,,,,https://www.amh.com/query?criteria=Atlanta%2C+GA,2026-04-05,2026-04-13,GA,McDonough,33.500829,-84.173213,,,GA20649
2026-04-13,AMH,"Atlanta, GA","2225 Leighs Brook Court, Dacula, GA, 30019","Atlanta, GA",AMH-GAA0171,3,2.5,1880,2160.0,2026-04-15,12 months,False,,,,,,,,https://www.amh.com/query?criteria=Atlanta%2C+GA,2026-04-05,2026-04-13,GA,Dacula,33.963974,-83.89257,,,GAA0171
2026-04-13,AMH,"Atlanta, GA","4150 Arch Pass, Cumming, GA, 30040","Atlanta, GA",AMH-GA20918,5,3.5,2212,2610.0,2026-04-30,12 months,False,,,,,,,,https://www.amh.com/query?criteria=Atlanta%2C+GA,2026-04-05,2026-04-13,GA,Cumming,34.260181,-84.095657,,,GA20918
2026-04-13,AMH,"Atlanta, GA","203 Happy Trail, Locust Grove, GA, 30248","Atlanta, GA",AMH-GA12866,4,2.5,2420,2370.0,2026-05-08,12 months,False,,,,,,,,https://www.amh.com/query?criteria=Atlanta%2C+GA,2026-04-05,2026-04-13,GA,Locust Grove,33.351429,-84.095053,,,GA12866
2026-04-13,AMH,"Atlanta, GA","3915 Madison Bend, Kennesaw, GA, 30144","Atlanta, GA",AMH-GA11044,4,2.5,2298,2520.0,2026-05-09,12 months,False,,,,,,,,https://www.amh.com/query?criteria=Atlanta%2C+GA,2026-04-05,2026-04-13,GA,Kennesaw,34.04818,-84.641464,,,GA11044
2026-04-13,AMH,"Atlanta, GA","4160 Lenox Park Drive, Buford, GA, 30519","Atlanta, GA",AMH-GA00512,3,2.0,1736,2245.0,2026-04-27,12 months,False,,,,,,,,https://www.amh.com/query?criteria=Atlanta%2C+GA,2026-04-05,2026-04-13,GA,Buford,34.093944,-83.896125,,,GA00512
2026-04-13,AMH,"Atlanta, GA","2508 Hannah Haven Drive, Conyers, GA, 30012","Atlanta, GA",AMH-GA17140,3,2.5,2030,2095.0,2026-05-01,12 months,False,,,,,,,,https://www.amh.com/query?criteria=Atlanta%2C+GA,2026-04-05,2026-04-13,GA,Conyers,33.710364,-84.005573,,,GA17140
2026-04-13,AMH,"Atlanta, GA","6903 Grand Hickory Drive, Braselton, GA, 30517","Atlanta, GA",AMH-GA15708,4,3.0,2115,2395.0,2026-05-06,12 months,False,,,,,,,,https://www.amh.com/query?criteria=Atlanta%2C+GA,2026-04-05,2026-04-13,GA,Braselton,34.125987,-83.819804,,,GA15708
2026-04-13,AMH,"Atlanta, GA","4156 Glenaire Way NW, Acworth, GA, 30101","Atlanta, GA",AMH-GA15721,3,2.5,2009,2310.0,2026-05-08,12 months,False,,,,,,,,https://www.amh.com/query?criteria=Atlanta%2C+GA,2026-04-05,2026-04-13,GA,Acworth,34.059883,-84.611832,,,GA15721
2026-04-13,AMH,"Atlanta, GA","275 Beckenham Walk Drive, Dacula, GA, 30019","Atlanta, GA",AMH-GA23545,4,2.5,3546,2880.0,2026-05-06,12 months,False,,,,,,,,https://www.amh.com/query?criteria=Atlanta%2C+GA,2026-04-05,2026-04-13,GA,Dacula,33.997977,-83.917922,,,GA23545
2026-04-13,AMH,"Atlanta, GA","333 Hidden Creek Lane, Canton, GA, 30114","Atlanta, GA",AMH-GAA0003,5,3.5,2590,2605.0,2026-05-05,12 months,False,,,,,,,,https://www.amh.com/query?criteria=Atlanta%2C+GA,2026-04-05,2026-04-13,GA,Canton,34.18396,-84.511864,,,GAA0003
2026-04-13,AMH,"Atlanta, GA","2505 Beal Street, Snellville, GA, 30078","Atlanta, GA",AMH-GA15743,5,2.0,2486,2665.0,2026-05-05,12 months,False,,,,,,,,https://www.amh.com/query?criteria=Atlanta%2C+GA,2026-04-05,2026-04-13,GA,Snellville,33.849804,-84.011208,,,GA15743
2026-04-13,AMH,"Atlanta, GA","303 Lismore Terrace, Woodstock, GA, 30189","Atlanta, GA",AMH-GA18000,6,3.5,2910,3020.0,2026-05-04,12 months,False,,,,,,,,https://www.amh.com/query?criteria=Atlanta%2C+GA,2026-04-05,2026-04-13,GA,Woodstock,34.132222,-84.59112,,,GA18000
2026-04-13,AMH,"Atlanta, GA","413 Juniper Bluff, Grayson, GA, 30017","Atlanta, GA",AMH-GA16981,4,2.5,2458,2660.0,2026-05-03,12 months,False,,,,,,,,https://www.amh.com/query?criteria=Atlanta%2C+GA,2026-04-05,2026-04-13,GA,Grayson,33.905316,-83.927665,,,GA16981
2026-04-13,AMH,"Atlanta, GA","313 Hickory Pointe Loop, Dallas, GA, 30157","Atlanta, GA",AMH-GA22012,3,2.5,2037,2255.0,2026-05-31,12 months,False,,,,,,,,https://www.amh.com/query?criteria=Atlanta%2C+GA,2026-04-05,2026-04-13,GA,Dallas,33.840718,-84.837023,,,GA22012
2026-04-13,AMH,"Atlanta, GA","3009 Sentinel Circle, Lawrenceville, GA, 30043","Atlanta, GA",AMH-GA14874,3,2.0,1460,2005.0,2026-05-18,12 months,False,,,,,,,,https://www.amh.com/query?criteria=Atlanta%2C+GA,2026-04-05,2026-04-13,GA,Lawrenceville,34.053619,-84.000381,,,GA14874
2026-04-13,AMH,"Atlanta, GA","3604 Mcphail Drive NW, Kennesaw, GA, 30144","Atlanta, GA",AMH-GA15953,4,3.0,1550,2410.0,2026-04-13,12 months,False,,,,,,,,https://www.amh.com/query?criteria=Atlanta%2C+GA,2026-04-05,2026-04-13,GA,Kennesaw,34.041653,-84.660278,,,GA15953
2026-04-13,AMH,"Atlanta, GA","20 Bridge Brook Court, Dallas, GA, 30157","Atlanta, GA",AMH-GA19376,4,2.5,2108,2235.0,2026-04-13,12 months,False,,,,,,,,https://www.amh.com/query?criteria=Atlanta%2C+GA,2026-04-05,2026-04-13,GA,Dallas,33.959,-84.7593,,,GA19376
2026-04-13,AMH,"Atlanta, GA","103 Kirk Drive, Dallas, GA, 30132","Atlanta, GA",AMH-GA17421,5,4.5,2940,2465.0,2026-04-13,12 months,False,,,,,,,,https://www.amh.com/query?criteria=Atlanta%2C+GA,2026-04-05,2026-04-13,GA,Dallas,33.93258,-84.842935,,,GA17421
2026-04-13,AMH,"Atlanta, GA","1642 Village Place Circle NE, Conyers, GA, 30012","Atlanta, GA",AMH-GA12746,4,2.5,2689,2235.0,2026-04-30,12 months,False,,,,,,,,https://www.amh.com/query?criteria=Atlanta%2C+GA,2026-04-05,2026-04-13,GA,Conyers,33.669216,-83.991585,,,GA12746
2026-04-13,AMH,"Atlanta, GA","712 Gatwick Court, Locust Grove, GA, 30248","Atlanta, GA",AMH-GA18043,5,3.0,2823,2745.0,2026-04-30,12 months,False,,,,,,,,https://www.amh.com/query?criteria=Atlanta%2C+GA,2026-04-05,2026-04-13,GA,Locust Grove,33.37223,-84.19158,,,GA18043
2026-04-13,AMH,"Atlanta, GA","358 Golucke Way, McDonough, GA, 30252","Atlanta, GA",AMH-GA22149,5,3.0,2513,2830.0,2026-05-31,12 months,False,,,,,,,,https://www.amh.com/query?criteria=Atlanta%2C+GA,2026-04-05,2026-04-13,GA,McDonough,33.43807,-84.03753,,,GA22149
2026-04-13,AMH,"Atlanta, GA","120 Blue Smoke Trail, Hampton, GA, 30228","Atlanta, GA",AMH-GA16303,4,2.5,2231,2230.0,2026-04-29,12 months,False,,,,,,,,https://www.amh.com/query?criteria=Atlanta%2C+GA,2026-04-05,2026-04-13,GA,Hampton,33.397736,-84.277467,,,GA16303
2026-04-13,AMH,"Atlanta, GA","582 Lullingstone Drive SE, Marietta, GA, 30067","Atlanta, GA",AMH-GA20021,3,2.5,2138,2880.0,2026-04-29,12 months,False,,,,,,,,https://www.amh.com/query?criteria=Atlanta%2C+GA,2026-04-05,2026-04-13,GA,Marietta,33.934877,-84.479218,,,GA20021
2026-04-13,AMH,"Atlanta, GA","2180 Lexington Lane, Cumming, GA, 30040","Atlanta, GA",AMH-GA20432,3,2.5,1377,2255.0,2026-04-29,12 months,False,,,,,,,,https://www.amh.com/query?criteria=Atlanta%2C+GA,2026-04-05,2026-04-13,GA,Cumming,34.167324,-84.170835,,,GA20432
2026-04-13,AMH,"Atlanta, GA","4293 Brandy Ann Court, Acworth, GA, 30101","Atlanta, GA",AMH-GA16843,3,2.0,1236,1960.0,2026-04-20,12 months,False,,,,,,,,https://www.amh.com/query?criteria=Atlanta%2C+GA,2026-04-05,2026-04-13,GA,Acworth,34.071746,-84.673939,,,GA16843
2026-04-13,AMH,"Atlanta, GA","836 Windcroft Circle, Acworth, GA, 30101","Atlanta, GA",AMH-GA13203,3,2.5,1231,2010.0,2026-04-17,12 months,False,,,,,,,,https://www.amh.com/query?criteria=Atlanta%2C+GA,2026-04-05,2026-04-13,GA,Acworth,34.07053,-84.65162,,,GA13203
2026-04-13,AMH,"Atlanta, GA","3013 Summer Breeze Drive, Villa Rica, GA, 30180","Atlanta, GA",AMH-GA15431,4,2.5,2020,1995.0,2026-04-10,12 months,False,,,,,,,,https://www.amh.com/query?criteria=Atlanta%2C+GA,2026-04-05,2026-04-13,GA,Villa Rica,33.735389,-84.873285,,,GA15431
2026-04-13,AMH,"Atlanta, GA","140 Cannon Drive, Fayetteville, GA, 30214","Atlanta, GA",AMH-GA15529,3,2.0,1558,2405.0,2026-04-15,12 months,False,,,,,,,,https://www.amh.com/query?criteria=Atlanta%2C+GA,2026-04-05,2026-04-13,GA,Fayetteville,33.458639,-84.432694,,,GA15529
2026-04-13,AMH,"Atlanta, GA","1387 Belfaire Lake Trail, Dacula, GA, 30019","Atlanta, GA",AMH-GA15946,5,3.5,3442,2995.0,2026-04-14,12 months,False,,,,,,,,https://www.amh.com/query?criteria=Atlanta%2C+GA,2026-04-05,2026-04-13,GA,Dacula,34.037582,-83.916336,,,GA15946
2026-04-13,AMH,"Atlanta, GA","158 Village Trace, Woodstock, GA, 30188","Atlanta, GA",AMH-GAA0340,4,2.5,2228,2455.0,2026-05-10,12 months,False,,,,,,,,https://www.amh.com/query?criteria=Atlanta%2C+GA,2026-04-05,2026-04-13,GA,Woodstock,34.090622,-84.470535,,,GAA0340
2026-04-13,AMH,"Atlanta, GA","5015 Sunbrook Way NW, Acworth, GA, 30101","Atlanta, GA",AMH-GA14944,5,3.0,2497,2545.0,2026-03-13,12 months,False,,,,,,,,https://www.amh.com/query?criteria=Atlanta%2C+GA,2026-04-05,2026-04-13,GA,Acworth,34.011375,-84.696846,,,GA14944
2026-04-13,AMH,"Atlanta, GA","2440 Hampton Estates Dr SW, Marietta, GA, 30008","Atlanta, GA",AMH-GA00110,4,2.5,2210,2430.0,2026-04-20,12 months,False,,,,,,,,https://www.amh.com/query?criteria=Atlanta%2C+GA,2026-04-05,2026-04-13,GA,Marietta,33.894272,-84.608452,,,GA00110
2026-04-13,AMH,"Atlanta, GA","2920 Mayfair Drive, Cumming, GA, 30040","Atlanta, GA",AMH-GA12713,3,2.5,1768,2210.0,2026-04-15,12 months,False,,,,,,,,https://www.amh.com/query?criteria=Atlanta%2C+GA,2026-04-05,2026-04-13,GA,Cumming,34.237194,-84.099937,,,GA12713
2026-04-13,AMH,"Atlanta, GA","6263 Braidwood Run NW, Acworth, GA, 30101","Atlanta, GA",AMH-GA18180,5,2.5,3113,2870.0,2026-04-16,12 months,False,,,,,,,,https://www.amh.com/query?criteria=Atlanta%2C+GA,2026-04-05,2026-04-13,GA,Acworth,33.977213,-84.737028,,,GA18180
2026-04-13,AMH,"Atlanta, GA","304 Wickley Way, Woodstock, GA, 30188","Atlanta, GA",AMH-GAA0121,4,2.0,2799,2845.0,2026-04-20,12 months,False,,,,,,,,https://www.amh.com/query?criteria=Atlanta%2C+GA,2026-04-05,2026-04-13,GA,Woodstock,34.089649,-84.458267,,,GAA0121
2026-04-13,AMH,"Atlanta, GA","214 Bo Simpson Parkway, Mcdonough, GA, 30253","Atlanta, GA",AMH-GA18474,4,2.0,1784,2085.0,2026-04-16,12 months,False,,,,,,,,https://www.amh.com/query?criteria=Atlanta%2C+GA,2026-04-05,2026-04-13,GA,Mcdonough,33.4049,-84.21266,,,GA18474
